CGNDB_ID,CGNDB_ID_2,GEONAME,GEONAME_2,PROV_TERR,LOCATION,LATITUDE,LONGITUDE,GENERIC,CONCISE,REL_SCALE,FEATURE_ID
EHZOX,,Sainte-Perpétue (L'Islet),Sainte-Perpétue (L'Islet),QC,Sainte-Perpétue; L'Islet,47.058450298000025,-69.92879449899993,Municipality,VILG,50000,2d754963be4d11d892e2080020a0f4c9
EHZOY,,Sainte-Perpétue (Nicolet-Yamaska),Sainte-Perpétue (Nicolet-Yamaska),QC,Sainte-Perpétue; Nicolet-Yamaska,46.08280760000008,-72.46455529999997,Parish Municipality,VILG,250000,2d7c9c64be4d11d892e2080020a0f4c9
CBQOF,,Caledonia (Queens),Caledonia (Queens),NS,Queens,44.372859875000074,-65.02892739399994,Community,UNP,1000000,43490db8affc11d892e2080020a0f4c9
CBQOG,,Caledonia (Guysborough),Caledonia (Guysborough),NS,Guysborough,45.282000149000055,-62.39277510599999,Community,UNP,1000000,43894b09affc11d892e2080020a0f4c9
CBHBJ,,Salt Springs (Antigonish),Salt Springs (Antigonish),NS,Antigonish,45.590348418000076,-62.00188326499995,Community,UNP,250000,ea17f91aafe911d892e2080020a0f4c9
CBHBH,,Salt Springs (Pictou),Salt Springs (Pictou),NS,Pictou,45.53698912800007,-62.895714271999964,Community,UNP,250000,e9d37608afe911d892e2080020a0f4c9
EHZKU,,Sainte-Jeanne-d'Arc (La Mitis),Sainte-Jeanne-d'Arc (La Mitis),QC,Sainte-Jeanne-d'Arc; La Mitis,48.49448700000005,-67.95778750099998,Parish Municipality,VILG,50000,1e2aa4a7be4d11d892e2080020a0f4c9
EJJGI,,Sainte-Jeanne-d'Arc (Drummond),Sainte-Jeanne-d'Arc (Drummond),QC,Lefebvre; Drummond,45.71142290000006,-72.41205519999994,Village,UNP,250000,03cd0336bf9111d892e2080020a0f4c9
EHZKV,,Sainte-Jeanne-d'Arc (Maria-Chapdelaine),Sainte-Jeanne-d'Arc (Maria-Chapdelaine),QC,Sainte-Jeanne-d'Arc; Maria-Chapdelaine,48.86567297600004,-72.08558719399997,Village Municipality,TOWN,1000000,1e318278be4d11d892e2080020a0f4c9
EIAJZ,,Saint-Louis-de-Gonzague (Les Etchemins),Saint-Louis-de-Gonzague (Les Etchemins),QC,Saint-Louis-de-Gonzague; Les Etchemins,46.26773045300007,-70.32991360599993,Municipality,VILG,50000,9395163cbe4d11d892e2080020a0f4c9
EIAKA,,Saint-Louis-de-Gonzague (Beauharnois-Salaberry),Saint-Louis-de-Gonzague (Beauharnois-Salaberry),QC,Saint-Louis-de-Gonzague; Beauharnois-Salaberry,45.21665476600003,-73.99428995899996,Parish Municipality,VILG,1000000,957a29edbe4d11d892e2080020a0f4c9
DAIJQ,,South Branch (Kent),South Branch (Kent),NB,Kent,46.53629293200004,-64.90974206599998,Dispersed Rural Community,UNP,250000,aef70710d05211d892e2080020a0f4c9
DAIJP,,South Branch (Kings),South Branch (Kings),NB,Kings,45.74817004600004,-65.28969552199999,Dispersed Rural Community,UNP,250000,0c7bc156849c20c3b257330b8635ff60
IAQDC,,Keg River (1-101-23-W5),Keg River (1-101-23-W5),AB,1-101-23-W5,57.745954769000036,-117.61039916299995,Locality,UNP,250000,c1d4975ac6cd11d892e2080020a0f4c9
IAQDD,,Keg River (21-101-24-W5),Keg River (21-101-24-W5),AB,21-101-24-W5,57.790668364000055,-117.85531398699999,Hamlet,UNP,250000,0c89c8eb849c20c3d78eb8dec616adea
EHZAK,,Saint-Cyprien (Les Etchemins),Saint-Cyprien (Les Etchemins),QC,Saint-Cyprien; Les Etchemins,46.353364500000055,-70.26367539999995,Parish Municipality,VILG,50000,f618290dbe4c11d892e2080020a0f4c9
EHZAJ,,Saint-Cyprien (Rivière-du-Loup),Saint-Cyprien (Rivière-du-Loup),QC,Saint-Cyprien; Rivière-du-Loup,47.89363252700008,-69.01721675799996,Municipality,VILG,1000000,f60febacbe4c11d892e2080020a0f4c9
EHFSY,,Mercier (Roussillon),Mercier (Roussillon),QC,Mercier; Roussillon,45.31044276000006,-73.74193310799996,Town,CITY,250000,728cfd50be3b11d892e2080020a0f4c9
EKARS,,Mercier (Rouyn-Noranda),Mercier (Rouyn-Noranda),QC,Rouyn-Noranda; Rouyn-Noranda,48.234253600000045,-78.98619690099997,Named Locality,UNP,250000,0cd36aa0849c20c3d65e09bc9b83a27c
EQYKR,,Saint-Louis (Charlevoix),Saint-Louis (Charlevoix),QC,L'Isle-aux-Coudres; Charlevoix,47.37185913500008,-70.40769856699995,Village,UNP,50000,0d08fa1e849c20c3217d5c079ed50445
ESBHV,,Saint-Louis (Les Maskoutains),Saint-Louis (Les Maskoutains),QC,Saint-Louis; Les Maskoutains,45.85364540000006,-72.97845849999999,Municipality,VILG,50000,90fedaf0be4d11d892e2080020a0f4c9
EFMNI,,Bellefeuille (Le Haut-Saint-François),Bellefeuille (Le Haut-Saint-François),QC,Chartierville; Le Haut-Saint-François,45.31032150000004,-71.31257739999995,Hamlet,UNP,250000,b7fcb181bbe711d892e2080020a0f4c9
EREDY,,Bellefeuille (La Rivière-du-Nord),Bellefeuille (La Rivière-du-Nord),QC,Saint-Jérôme; La Rivière-du-Nord,45.784010815000045,-74.08190191699998,Administrative Sector,UNP,50000,0d0aa37c849c20c3241a2deae4bd90af
JAXWJ,,Summit Lake (Peace River Land District),Summit Lake (Peace River Land District),BC,Peace River Land District,58.65539421200003,-124.63771875399999,Locality,UNP,250000,d376e818c6cd11d892e2080020a0f4c9
JAXWO,,Summit Lake (Cariboo Land District),Summit Lake (Cariboo Land District),BC,Cariboo Land District,54.25000000000006,-122.63329989999994,Community,UNP,250000,d380d329c6cd11d892e2080020a0f4c9
JAXWS,,Summit Lake (Kootenay Land District),Summit Lake (Kootenay Land District),BC,Kootenay Land District,50.16667207800003,-117.67179420399998,Locality,UNP,50000,d38ba89ac6cd11d892e2080020a0f4c9
CBRCB,,Mount Pleasant (Queens),Mount Pleasant (Queens),NS,Queens,44.033298682000066,-64.69999782799994,Community,UNP,250000,c8009432affc11d892e2080020a0f4c9
CBRCC,,Mount Pleasant (Lunenburg),Mount Pleasant (Lunenburg),NS,Lunenburg,44.28568993700003,-64.42660213799996,Community,UNP,250000,c81072b3affc11d892e2080020a0f4c9
EGOWM,,Grosse-Île (Montmagny),Grosse-Île (Montmagny),QC,Saint-Antoine-de-l'Isle-aux-Grues; Montmagny,47.03102936800008,-70.66407839899995,Hamlet,UNP,250000,6f05cb7fbe1911d892e2080020a0f4c9
EQKZW,,Grosse-Île (Grosse-Île),Grosse-Île (Grosse-Île),QC,Grosse-Île; Grosse-Île,47.618975954000064,-61.51705388099998,Municipality,VILG,50000,2a07a6dce453474781a875b4ceba0d54
FCHRO,,Poplar Hill (Kenora),Poplar Hill (Kenora),ON,Kenora,52.09694440000004,-94.30416660099996,Dispersed Rural Community,UNP,1000000,0c4ab0f0849c20c3d8c8e78db0f5429a
FCHRN,,Poplar Hill (Middlesex),Poplar Hill (Middlesex),ON,Middlesex,43.00583330000006,-81.51499989999996,Dispersed Rural Community,UNP,250000,0c4ab06e849c20c38410ac31c38985b9
EIAHE,,Saint-Lambert (Abitibi-Ouest),Saint-Lambert (Abitibi-Ouest),QC,Saint-Lambert; Abitibi-Ouest,48.951760000000036,-79.45982889999993,Parish Municipality,VILG,250000,885ff9dbbe4d11d892e2080020a0f4c9
ESAEH,,Saint-Lambert (Saint-Lambert),Saint-Lambert (Saint-Lambert),QC,Saint-Lambert; Saint-Lambert,45.50020326100008,-73.50785204099998,Town,CITY,50000,014a49510a001204243fa7c052d1dafe
EJJYZ,,La Montagne (Les Îles-de-la-Madeleine),La Montagne (Les Îles-de-la-Madeleine),QC,Les Îles-de-la-Madeleine; Les Îles-de-la-Madeleine,47.24559283700006,-61.96308044399996,Hamlet,UNP,50000,9d040946bf9111d892e2080020a0f4c9
EKIVN,,La Montagne (Pontiac),La Montagne (Pontiac),QC,L'Île-du-Grand-Calumet; Pontiac,45.66670000000005,-76.66669989999997,Administrative Sector,UNP,50000,6d4c7cbcd1e311d892e2080020a0f4c9
EGNZY,,Grande-Vallée (La Côte-de-Gaspé),Grande-Vallée (La Côte-de-Gaspé),QC,Grande-Vallée; La Côte-de-Gaspé,49.21926231600003,-65.13343501799994,Municipality,VILG,1000000,0cf071b9849c20c3ee335f0fa073fa61
EGNZX,,Grande-Vallée (Matawinie),Grande-Vallée (Matawinie),QC,Chertsey; Matawinie,46.17170550000003,-73.88237119999997,Residential Area,UNP,50000,05e430cbbe1911d892e2080020a0f4c9
EPVOR,,Saint-Isidore (La Nouvelle-Beauce),Saint-Isidore (La Nouvelle-Beauce),QC,Saint-Isidore; La Nouvelle-Beauce,46.582829530000026,-71.09190273599995,Municipality,VILG,1000000,1b93c5a1d1e311d892e2080020a0f4c9
EIAAA,,Saint-Isidore (Roussillon),Saint-Isidore (Roussillon),QC,Saint-Isidore; Roussillon,45.30170670000007,-73.68070319999998,Parish Municipality,VILG,250000,6e8d68bcbe4d11d892e2080020a0f4c9
EJNSJ,,Saint-Edmond (D'Autray),Saint-Edmond (D'Autray),QC,Saint-Barthélemy; D'Autray,46.26142230000005,-73.26485059999999,Hamlet,UNP,250000,01757735bf9411d892e2080020a0f4c9
EJDSC,,Saint-Edmond (La Vallée-de-l'Or),Saint-Edmond (La Vallée-de-l'Or),QC,Val-d'Or; La Vallée-de-l'Or,48.20090151800008,-77.82157032699996,Hamlet,UNP,250000,b74c271dbf1111d892e2080020a0f4c9
EPLSX,,Mont-Saint-Pierre (Deux-Montagnes),Mont-Saint-Pierre (Deux-Montagnes),QC,Oka; Deux-Montagnes,45.49837400000007,-74.02015889999996,Residential Area,UNP,50000,c2b2a075d1e211d892e2080020a0f4c9
EHHVV,,Mont-Saint-Pierre (La Haute-Gaspésie),Mont-Saint-Pierre (La Haute-Gaspésie),QC,Mont-Saint-Pierre; La Haute-Gaspésie,49.216789584000026,-65.81278795899993,Village Municipality,TOWN,250000,0e648296be3d11d892e2080020a0f4c9
FEAML,,York (York),York (York),ON,York,43.69333330000006,-79.44694439999995,Community,UNP,50000,3c5deab0c6ce11d892e2080020a0f4c9
FDFVL,,York (Haldimand),York (Haldimand),ON,Haldimand,43.02249990000007,-79.88861110099998,Compact Rural Community,UNP,1000000,0c56a0ce849c20c3a96a377a2bb9fd56
EIUOI,,Sainte-Marguerite-Marie (Maria-Chapdelaine),Sainte-Marguerite-Marie (Maria-Chapdelaine),QC,Dolbeau-Mistassini; Maria-Chapdelaine,48.816700222000065,-72.21669797299995,Hamlet,UNP,250000,38245498bf0b11d892e2080020a0f4c9
EQEYS,,Sainte-Marguerite-Marie (La Matapédia),Sainte-Marguerite-Marie (La Matapédia),QC,Sainte-Marguerite-Marie; La Matapédia,48.31643690000004,-67.08525540099998,Municipality,VILG,250000,26af951ebe4d11d892e2080020a0f4c9
CBREB,,North River (Lunenburg),North River (Lunenburg),NS,Lunenburg,44.616698908000046,-64.76669982299995,Community,UNP,250000,ca2fa959affc11d892e2080020a0f4c9
CBREC,,North River (Colchester),North River (Colchester),NS,Colchester,45.425189008000075,-63.254637396999954,Community,UNP,250000,ca380dcaaffc11d892e2080020a0f4c9
EREEA,,Saint-Antoine (La Rivière-du-Nord),Saint-Antoine (La Rivière-du-Nord),QC,Saint-Jérôme; La Rivière-du-Nord,45.763929200000064,-73.98571039999996,Administrative Sector,UNP,50000,0d0aa3fe849c20c34dff46d66153a486
EPTBL,,Saint-Antoine (Le Fjord-du-Saguenay),Saint-Antoine (Le Fjord-du-Saguenay),QC,Petit-Saguenay; Le Fjord-du-Saguenay,48.15807873700004,-70.03315760299995,Hamlet,UNP,50000,07a7fa11d1e311d892e2080020a0f4c9
FEINO,,Ferndale (Bruce),Ferndale (Bruce),ON,Bruce,44.97249990000006,-81.28833329999998,Compact Rural Community,UNP,250000,0c61deaf849c20c3eb567786a824c9e8
FEINN,,Ferndale (Peel),Ferndale (Peel),ON,Peel,43.768574458000046,-79.92524997299995,Dispersed Rural Community,UNP,250000,0c61dfdb849c20c3f3165648070fc793
JCXSO,,Pine Valley (Peace River Land District),Pine Valley (Peace River Land District),BC,Peace River Land District,55.63606154300004,-122.11486737199999,Locality,UNP,250000,fa6f19ffc6cd11d892e2080020a0f4c9
JCVXW,,Pine Valley (Cariboo Land District),Pine Valley (Cariboo Land District),BC,Cariboo Land District,52.17525471600004,-122.08967069899995,Community,UNP,250000,0ca9fbb4849c20c3de77edf20bc997fd
EJXYW,,Lavoie (Maskinongé),Lavoie (Maskinongé),QC,Saint-Étienne-des-Grès; Maskinongé,46.38974950000005,-72.75456429999997,Hamlet,UNP,250000,0590a634bfae11d892e2080020a0f4c9
EGYMS,,Lavoie (La Mitis),Lavoie (La Mitis),QC,Sainte-Flavie; La Mitis,48.57003990000004,-68.24696289999997,Hamlet,UNP,50000,89b6f2a9be3211d892e2080020a0f4c9
EGVFK,,Kelly (L'Érable),Kelly (L'Érable),QC,Plessisville; L'Érable,46.252253100000075,-71.74009869899999,Hamlet,UNP,250000,38b4a1a9be2c11d892e2080020a0f4c9
EGVFI,,Kelly (Bonaventure),Kelly (Bonaventure),QC,Saint-Godefroi; Bonaventure,48.11477380000008,-65.13462079999994,Hamlet,UNP,1000000,36dde5d7be2c11d892e2080020a0f4c9
HAJSH,,Springside (23-27-6-W2),Springside (23-27-6-W2),SK,23-27-6-W2,51.34652210300004,-102.74342743199998,Town,TOWN,1000000,eff408abd05311d892e2080020a0f4c9
HAJSI,,Springside (3-32-32-W),Springside (3-32-32-W),SK,3-32-32-W,51.71670000000006,-101.91669999899995,Locality,UNP,1000000,0c2d15ee849c20c3bb975218d05f280a
DATSH,,Oak Point (Kings),Oak Point (Kings),NB,Kings,45.51737001200007,-66.08524606199995,Dispersed Rural Community,UNP,250000,0c801fb1849c20c34c8ff45dadda2d33
DATSI,,Oak Point (Northumberland),Oak Point (Northumberland),NB,Northumberland,47.12369046200007,-65.26966851099996,Dispersed Rural Community,UNP,250000,0c80206d849c20c3893a74151a453508
EJAQI,,Sainte-Rose (Abitibi-Ouest),Sainte-Rose (Abitibi-Ouest),QC,Poularies; Abitibi-Ouest,48.660924400000056,-78.98452929999996,Village,UNP,250000,9bfa8234bf0f11d892e2080020a0f4c9
EHZPP,,Sainte-Rose (Laval),Sainte-Rose (Laval),QC,Laval; Laval,45.61368177700007,-73.78600017599996,Administrative Sector,UNP,250000,2f8f76dbbe4d11d892e2080020a0f4c9
EIAOL,,Saint-Narcisse (Les Chenaux),Saint-Narcisse (Les Chenaux),QC,Saint-Narcisse; Les Chenaux,46.56521934700004,-72.47026662899998,Parish Municipality,VILG,250000,a575cf23be4d11d892e2080020a0f4c9
EIAOK,,Saint-Narcisse (Lotbinière),Saint-Narcisse (Lotbinière),QC,Saint-Narcisse-de-Beaurivage; Lotbinière,46.48308360000004,-71.23369399999996,Village,UNP,250000,a561d1f2be4d11d892e2080020a0f4c9
EPYBT,,Saint-Elzéar (La Nouvelle-Beauce),Saint-Elzéar (La Nouvelle-Beauce),QC,Saint-Elzéar; La Nouvelle-Beauce,46.406193417000054,-71.06316745799995,Municipality,VILG,1000000,0cc4a705849c20c318db8fdc25055492
EHZLY,,Saint-Elzéar (Bonaventure),Saint-Elzéar (Bonaventure),QC,Saint-Elzéar; Bonaventure,48.158939700000076,-65.39685740099998,Municipality,VILG,250000,2280b86ebe4d11d892e2080020a0f4c9
CAURA,,Little River (Digby),Little River (Digby),NS,Digby,44.44516161100006,-66.14527862599994,Community,UNP,250000,b07a5708af7d11d892e2080020a0f4c9
CAUQB,,Little River (Victoria),Little River (Victoria),NS,Victoria,46.442915852000056,-60.46654769199995,Community,UNP,250000,854cdf75af7d11d892e2080020a0f4c9
FCPVZ,,Snug Harbour (Victoria),Snug Harbour (Victoria),ON,Victoria,44.42405285800004,-78.71873119499998,Dispersed Rural Community,UNP,50000,0cb0cd57849c20c3b8324a292f52ad17
FAYOX,,Snug Harbour (Parry Sound),Snug Harbour (Parry Sound),ON,Parry Sound,45.37444440000007,-80.29944439999997,Dispersed Rural Community,UNP,250000,88282e3bc6be11d892e2080020a0f4c9
CAUGV,,Little Harbour (Richmond),Little Harbour (Richmond),NS,Richmond,45.58618742200008,-60.737161786999934,Community,UNP,250000,2d31716eaf7c11d892e2080020a0f4c9
CAUGG,,Little Harbour (Shelburne),Little Harbour (Shelburne),NS,Shelburne,43.71670166700005,-65.03330302299997,Community,UNP,250000,1b7ea68faf7c11d892e2080020a0f4c9
CBUKS,,Little Harbour (Halifax),Little Harbour (Halifax),NS,Halifax,44.71045156800005,-62.83996751099994,Community,UNP,50000,8e774f9caffd11d892e2080020a0f4c9
JDEYV,,Dog Creek (Cariboo Land District),Dog Creek (Cariboo Land District),BC,Cariboo Land District,52.09436137800003,-122.11427813099999,Community,UNP,50000,0cc7e4a1849c20c3ff51b6ca3777ad01
JBGJZ,,Dog Creek (Range 5 Coast Land District),Dog Creek (Range 5 Coast Land District),BC,Range 5 Coast Land District,54.28329990000003,-124.26669990099998,Locality,UNP,250000,0c9b5659849c20c3ce3a20f647e13e57
JBXNP,,Dog Creek (Lillooet Land District),Dog Creek (Lillooet Land District),BC,Lillooet Land District,51.583300000000065,-122.23329989999996,Community,UNP,250000,ecd1d728c6cd11d892e2080020a0f4c9
CBEND,,Port Royal (Richmond),Port Royal (Richmond),NS,Richmond,45.53366919000007,-61.08252004299993,Community,UNP,250000,8144691fafe711d892e2080020a0f4c9
CBENC,,Port Royal (Annapolis),Port Royal (Annapolis),NS,Annapolis,44.71761937700006,-65.60258290799999,Community,UNP,50000,813b8f7eafe711d892e2080020a0f4c9
DABOH,,New Bandon (Northumberland),New Bandon (Northumberland),NB,Northumberland,46.496936789000074,-66.27795449899997,Dispersed Rural Community,UNP,1000000,0c7957fb849c20c337e9310509617440
DABOI,,New Bandon (Gloucester),New Bandon (Gloucester),NB,Gloucester,47.75755894800005,-65.31542285099994,Dispersed Rural Community,UNP,250000,0c795751849c20c314459cbefde1e183
JAXQN,,Deep Cove (New Westminster Land District),Deep Cove (New Westminster Land District),BC,New Westminster Land District,49.32322864200006,-122.94790057099999,Community,UNP,250000,d34e0354c6cd11d892e2080020a0f4c9
JAXQO,,Deep Cove (North Saanich Land District),Deep Cove (North Saanich Land District),BC,North Saanich Land District,48.679567718000044,-123.47252001399994,Community,UNP,250000,0c96c6f0849c20c39334817a1169bab3
EIBCZ,,Saint-Zacharie (Les Etchemins),Saint-Zacharie (Les Etchemins),QC,Saint-Zacharie; Les Etchemins,46.12643571800004,-70.36413581499994,Municipality,VILG,1000000,e40ff581be4d11d892e2080020a0f4c9
EITTT,,Saint-Zacharie (Le Val-Saint-François),Saint-Zacharie (Le Val-Saint-François),QC,Val-Joli; Le Val-Saint-François,45.59531650000008,-71.96232239999995,Hamlet,UNP,250000,c504e489bf0a11d892e2080020a0f4c9
EHUHZ,,Radisson (Eeyou Istchee Baie-James),Radisson (Eeyou Istchee Baie-James),QC,Eeyou Istchee Baie-James; Eeyou Istchee Baie-James,53.78692991400004,-77.60703651899996,Village,UNP,7500000,5e9ed58ebe4811d892e2080020a0f4c9
EPJXT,,Radisson (Vaudreuil-Soulanges),Radisson (Vaudreuil-Soulanges),QC,Vaudreuil-Dorion; Vaudreuil-Soulanges,45.45456916400008,-74.20556866199996,Hamlet,UNP,50000,0cc9f146849c20c3c678f4f52756c7ee
DAFRY,,Bayside (Charlotte),Bayside (Charlotte),NB,Charlotte,45.135681685000065,-67.11381821899994,Dispersed Rural Community,UNP,1000000,ac7034e6d05211d892e2080020a0f4c9
DAFRZ,,Bayside (Westmorland),Bayside (Westmorland),NB,Westmorland,46.066699492000055,-64.01669966799994,Dispersed Rural Community,UNP,250000,0c7a9e65849c20c37c9e294244404a34
EGYAJ,,L'Ascension (Lac-Saint-Jean-Est),L'Ascension (Lac-Saint-Jean-Est),QC,L'Ascension-de-Notre-Seigneur; Lac-Saint-Jean-Est,48.69126022800003,-71.66942165299997,Village,UNP,1000000,2eccb773be3211d892e2080020a0f4c9
EQJSO,,L'Ascension (Antoine-Labelle),L'Ascension (Antoine-Labelle),QC,L'Ascension; Antoine-Labelle,46.55227050000008,-74.82962699999996,Municipality,VILG,250000,0cf2c099849c20c3a5406e5b47fc2120
EQYRB,,Saint-Omer (Avignon),Saint-Omer (Avignon),QC,Carleton-sur-Mer; Avignon,48.110221730000035,-66.22188943299994,Administrative Sector,UNP,50000,0d091186849c20c31968756c1e6349c8
EIAPY,,Saint-Omer (L'Islet),Saint-Omer (L'Islet),QC,Saint-Omer; L'Islet,47.059465500000044,-69.72783689999994,Municipality,VILG,50000,ab03778fbe4d11d892e2080020a0f4c9
ERDMU,,Saint-Jean-de-la-Lande (Beauce-Sartigan),Saint-Jean-de-la-Lande (Beauce-Sartigan),QC,Saint-Georges; Beauce-Sartigan,46.044480100000044,-70.70646219999998,Administrative Sector,UNP,50000,0d0a5d8a849c20c3426dae66d6272e2c
EIADL,,Saint-Jean-de-la-Lande (Témiscouata),Saint-Jean-de-la-Lande (Témiscouata),QC,Saint-Jean-de-la-Lande; Témiscouata,47.42613660000006,-68.67863569999997,Municipality,VILG,50000,7b845962be4d11d892e2080020a0f4c9
EGWBZ,,Lac-à-la-Truite (Les Laurentides),Lac-à-la-Truite (Les Laurentides),QC,Sainte-Agathe-des-Monts; Les Laurentides,46.03329990000003,-74.24999989999998,Hamlet,UNP,250000,329219ddbe3111d892e2080020a0f4c9
ELCFE,,Lac-à-la-Truite (Les Appalaches),Lac-à-la-Truite (Les Appalaches),QC,Thetford Mines; Les Appalaches,46.04575306700008,-71.20669462199999,Resort,UNP,50000,3f92ed8ad1e111d892e2080020a0f4c9
EHZMP,,Sainte-Marguerite (Les Pays-d'en-Haut),Sainte-Marguerite (Les Pays-d'en-Haut),QC,Sainte-Marguerite-du-Lac-Masson; Les Pays-d'en-Haut,46.03197485900006,-74.05823965299999,Village,UNP,250000,26a2279cbe4d11d892e2080020a0f4c9
EHZMT,,Sainte-Marguerite (La Nouvelle-Beauce),Sainte-Marguerite (La Nouvelle-Beauce),QC,Sainte-Marguerite; La Nouvelle-Beauce,46.51276868200006,-70.93809398599996,Parish Municipality,VILG,50000,26b6c10fbe4d11d892e2080020a0f4c9
EHZOO,,Sainte-Monique (Lac-Saint-Jean-Est),Sainte-Monique (Lac-Saint-Jean-Est),QC,Sainte-Monique; Lac-Saint-Jean-Est,48.738709236000034,-71.85028268399998,Municipality,VILG,1000000,2d5a6e5fbe4d11d892e2080020a0f4c9
EQFWV,,Sainte-Monique (Nicolet-Yamaska),Sainte-Monique (Nicolet-Yamaska),QC,Sainte-Monique; Nicolet-Yamaska,46.158916900000065,-72.53650169999997,Municipality,VILG,250000,0cf09476849c20c3f228cc6386093226
EJNGB,,Ferland (Le Fjord-du-Saguenay),Ferland (Le Fjord-du-Saguenay),QC,Ferland-et-Boilleau; Le Fjord-du-Saguenay,48.17733250300006,-70.84924721599998,Village,UNP,250000,58ed6476bf9311d892e2080020a0f4c9
EOVFK,,Ferland (Sept-Rivières),Ferland (Sept-Rivières),QC,Sept-Îles; Sept-Rivières,50.268981835000034,-66.42009818499997,Residential Area,UNP,250000,71b87ea6d1e211d892e2080020a0f4c9
FCRMW,,Spring Valley (Leeds),Spring Valley (Leeds),ON,Leeds,44.62444440000007,-75.77694439999993,Compact Rural Community,UNP,250000,0c4f9816849c20c3eb1dc5c4d6d153a8
FCRMV,,Spring Valley (Northumberland),Spring Valley (Northumberland),ON,Northumberland,44.05972220000007,-77.74583329999996,Dispersed Rural Community,UNP,250000,0c4f985c849c20c3fc4bf9063e41d117
FELRC,,Gillies (Thunder Bay),Gillies (Thunder Bay),ON,Thunder Bay,48.265833300000054,-89.70277769999996,Township Municipality,MUN2,50000,0c626a4d849c20c355e5b1c44607329a
FBHKF,,Gillies (Timiskaming),Gillies (Timiskaming),ON,Timiskaming,47.37861110000006,-79.74805549999996,Dispersed Rural Community,UNP,250000,2a532f15c6be11d892e2080020a0f4c9
EREEE,,Fatima (Les Îles-de-la-Madeleine),Fatima (Les Îles-de-la-Madeleine),QC,Les Îles-de-la-Madeleine; Les Îles-de-la-Madeleine,47.40861772900007,-61.90097346999994,Village,UNP,50000,0d0aa501849c20c38638f10c4174b967
ELNAV,,Fatima (Témiscouata),Fatima (Témiscouata),QC,Packington; Témiscouata,47.44280050000003,-68.82308359999996,Hamlet,UNP,250000,5fc03b6ed1e111d892e2080020a0f4c9
EJFOX,,Fatima (Le Granit),Fatima (Le Granit),QC,Lac-Mégantic; Le Granit,45.57208476500006,-70.87320486999994,Administrative Sector,UNP,250000,1abcf8c8bf8f11d892e2080020a0f4c9
JBMIF,,Skookumchuck (Kootenay Land District),Skookumchuck (Kootenay Land District),BC,Kootenay Land District,49.91326507100007,-115.73206368999996,Locality,UNP,250000,e0e72679c6cd11d892e2080020a0f4c9
JBMIG,,Skookumchuck (New Westminster Land District),Skookumchuck (New Westminster Land District),BC,New Westminster Land District,49.93788663000004,-122.40840876199997,Locality,UNP,250000,e0f3346ac6cd11d892e2080020a0f4c9
CAFFI,,Brooklyn (Hants),Brooklyn (Hants),NS,Hants,45.00696198900005,-64.01312346399993,Community,UNP,1000000,f0e6790aaf5011d892e2080020a0f4c9
CAFFH,,Brooklyn (Yarmouth),Brooklyn (Yarmouth),NS,Yarmouth,43.86669880000005,-66.08329671999996,Community,UNP,250000,f0c18be9af5011d892e2080020a0f4c9
CAFFK,,Brooklyn (Queens),Brooklyn (Queens),NS,Queens,44.05520428600005,-64.69305144499998,Community,UNP,1000000,f16015dcaf5011d892e2080020a0f4c9
EITTN,,Saint-Sébastien (Le Granit),Saint-Sébastien (Le Granit),QC,Saint-Sébastien; Le Granit,45.78059220000006,-70.96674899999994,Municipality,VILG,250000,c4e96d45bf0a11d892e2080020a0f4c9
EIAYL,,Saint-Sébastien (Le Haut-Richelieu),Saint-Sébastien (Le Haut-Richelieu),QC,Saint-Sébastien; Le Haut-Richelieu,45.12559650000003,-73.14790799999997,Municipality,VILG,250000,d1a6ac9dbe4d11d892e2080020a0f4c9
CAGRF,,Centreville (Kings),Centreville (Kings),NS,Kings,45.13460822800005,-64.52817721099996,Community,UNP,1000000,5bb67f93af5411d892e2080020a0f4c9
CAGRH,,Centreville (Digby),Centreville (Digby),NS,Digby,44.55046244400006,-66.02531660199998,Community,UNP,250000,5c147e14af5411d892e2080020a0f4c9
CAXGW,,Maitland (Lunenburg),Maitland (Lunenburg),NS,Lunenburg,44.42675815800004,-64.45752470299993,Community,UNP,250000,dc48df58af9911d892e2080020a0f4c9
CAXGX,,Maitland (Hants),Maitland (Hants),NS,Hants,45.31740235400008,-63.495073306999984,Community,UNP,250000,df971ff9af9911d892e2080020a0f4c9
FCYWJ,,Union (Elgin),Union (Elgin),ON,Elgin,42.70522266200004,-81.19297568799999,Compact Rural Community,UNP,1000000,706df811c6cd11d892e2080020a0f4c9
FCYWH,,Union (Essex),Union (Essex),ON,Essex,42.03972220000003,-82.67361109999996,Compact Rural Community,UNP,250000,0c534695849c20c38d0c701e1e7df5db
FERIA,,Red Rock (Thunder Bay),Red Rock (Thunder Bay),ON,Thunder Bay,48.94157403300005,-88.26208216499998,Compact Rural Community,UNP,7500000,0cac1e18849c20c326b8ae3a123778e9
FAATZ,,Red Rock (Algoma),Red Rock (Algoma),ON,Algoma,46.62693332600003,-84.51734470699995,Dispersed Rural Community,UNP,250000,0c22670b849c20c302a96ee494da5f9a
EIAMT,,Saint-Mathieu (Roussillon),Saint-Mathieu (Roussillon),QC,Saint-Mathieu; Roussillon,45.31254020000006,-73.52153109999995,Municipality,VILG,250000,9ff45ab9be4d11d892e2080020a0f4c9
EIAMR,,Saint-Mathieu (Les Basques),Saint-Mathieu (Les Basques),QC,Saint-Mathieu-de-Rioux; Les Basques,48.181225719000054,-68.99121400399997,Hamlet,UNP,50000,9df68ee7be4d11d892e2080020a0f4c9
FCEZU,,Mountain View (Renfrew),Mountain View (Renfrew),ON,Renfrew,46.06499990000003,-77.47249999999997,Dispersed Rural Community,UNP,50000,0c49621c849c20c393d289c9e8d48f87
FCEZV,,Mountain View (Prince Edward),Mountain View (Prince Edward),ON,Prince Edward,44.07527770000007,-77.36833329999996,Compact Rural Community,UNP,250000,0c4962b5849c20c30a3878d17c2d30a2
EIYNR,,Sainte-Anne-du-Lac (Antoine-Labelle),Sainte-Anne-du-Lac (Antoine-Labelle),QC,Sainte-Anne-du-Lac; Antoine-Labelle,46.87976327100006,-75.32373602799998,Municipality,VILG,250000,ee9c72fcbf0d11d892e2080020a0f4c9
EREEI,,Sainte-Anne-du-Lac (Les Appalaches),Sainte-Anne-du-Lac (Les Appalaches),QC,Adstock; Les Appalaches,46.077813400000025,-71.20230649999996,Administrative Sector,UNP,50000,0d0aa5cd849c20c3589ae5128292c3c5
JAJAU,,Cherry Creek (Alberni Land District),Cherry Creek (Alberni Land District),BC,Alberni Land District,49.282721535000064,-124.78749557299994,Community,UNP,250000,c93ad1eec6cd11d892e2080020a0f4c9
JDHDJ,,Cherry Creek (Kamloops Division Yale Land District),Cherry Creek (Kamloops Division Yale Land District),BC,Kamloops Division Yale Land District,50.71249990000007,-120.62499999999994,Community,UNP,50000,7dc3fdb3c5f711d892e2080020a0f4c9
JBHCG,,Old Fort (Peace River Land District),Old Fort (Peace River Land District),BC,Peace River Land District,56.20217615400003,-120.82327098799999,Community,UNP,50000,0c9bc78e849c20c319b88f0746a96640
JBHCF,,Old Fort (Cassiar Land District),Old Fort (Cassiar Land District),BC,Cassiar Land District,55.039264993000074,-126.31612597199995,Locality,UNP,250000,dbdae2afc6cd11d892e2080020a0f4c9
EHLEV,,Notre-Dame-du-Rosaire (Lac-Saint-Jean-Est),Notre-Dame-du-Rosaire (Lac-Saint-Jean-Est),QC,Lamarche; Lac-Saint-Jean-Est,48.791944872000045,-71.42818413999998,Village,UNP,250000,58251895be4011d892e2080020a0f4c9
EHLEW,,Notre-Dame-du-Rosaire (Montmagny),Notre-Dame-du-Rosaire (Montmagny),QC,Notre-Dame-du-Rosaire; Montmagny,46.82530060000005,-70.39090480099998,Municipality,VILG,50000,5833e5a6be4011d892e2080020a0f4c9
JAJIB,,Black Creek (Comox Land District),Black Creek (Comox Land District),BC,Comox Land District,49.83686705700006,-125.13211304899994,Community,UNP,250000,0cc46603c6ce11d892e2080020a0f4c9
JAKDN,,Black Creek (Cariboo Land District),Black Creek (Cariboo Land District),BC,Cariboo Land District,52.29811415300003,-121.09312188799998,Locality,UNP,250000,5c39d77ec6be11d892e2080020a0f4c9
CATNW,,Lawrencetown (Halifax),Lawrencetown (Halifax),NS,Halifax,44.66586350400007,-63.373316071999966,Community,UNP,250000,c2217f23af7111d892e2080020a0f4c9
CATNX,,Lawrencetown (Annapolis),Lawrencetown (Annapolis),NS,Annapolis,44.882197000000076,-65.15866799999998,Village,VILG,1000000,c9ee4304af7111d892e2080020a0f4c9
ABEZM,,Charlottetown (Eagle River),Charlottetown (Eagle River),NL,Eagle River,52.768601456000056,-56.11605337299994,Town,TOWN,1000000,2b9447c8c6ce11d892e2080020a0f4c9
AADXA,,Charlottetown (Terra Nova),Charlottetown (Terra Nova),NL,Terra Nova,48.433643611000036,-54.01314986799997,Local Service District,UNP,250000,e16a42fdd05311d892e2080020a0f4c9
FECZW,,Kinburn (Huron),Kinburn (Huron),ON,Huron,43.629166600000076,-81.41944439999997,Dispersed Rural Community,UNP,250000,fb97e0c4d05211d892e2080020a0f4c9
FBUOV,,Kinburn (Carleton),Kinburn (Carleton),ON,Carleton,45.391666600000065,-76.18916659999996,Compact Rural Community,UNP,250000,0c43d18a849c20c36b433487bc0f612e
JBKKH,,Silver Creek (Kamloops Division Yale Land District),Silver Creek (Kamloops Division Yale Land District),BC,Kamloops Division Yale Land District,50.59611066800005,-119.36544067899996,Locality,UNP,250000,dedb51b7c6cd11d892e2080020a0f4c9
JBKKG,,Silver Creek (Yale Division Yale Land District),Silver Creek (Yale Division Yale Land District),BC,Yale Division Yale Land District,49.36336199500005,-121.45562406099998,Community,UNP,250000,0c9d6635849c20c354693a30d68d1d86
CANBY,,French River (Victoria),French River (Victoria),NS,Victoria,46.49083897700007,-60.44036565799996,Locality,UNP,250000,202b8b32af6211d892e2080020a0f4c9
CANBZ,,French River (Colchester),French River (Colchester),NS,Colchester,45.71528405500004,-63.333004133999964,Community,UNP,50000,206d9d43af6211d892e2080020a0f4c9
EHZJL,,Sainte-Françoise (Bécancour),Sainte-Françoise (Bécancour),QC,Sainte-Françoise; Bécancour,46.44835930000005,-71.98065659999997,Municipality,VILG,250000,1994a2aabe4d11d892e2080020a0f4c9
EHZJM,,Sainte-Françoise (Les Basques),Sainte-Françoise (Les Basques),QC,Sainte-Françoise; Les Basques,48.094470400000034,-69.06308999999999,Parish Municipality,VILG,50000,199b325bbe4d11d892e2080020a0f4c9
FBOYK,,Horseshoe Lake (Haliburton),Horseshoe Lake (Haliburton),ON,Haliburton,44.996388800000034,-78.69333329999995,Locality,UNP,50000,fe9876d7d05211d892e2080020a0f4c9
FBOYJ,,Horseshoe Lake (Parry Sound),Horseshoe Lake (Parry Sound),ON,Parry Sound,45.296111100000076,-79.85694439999997,Dispersed Rural Community,UNP,250000,0c40db33849c20c330bae705b85f009e
JAEZV,,Bear Lake (Cassiar Land District),Bear Lake (Cassiar Land District),BC,Cassiar Land District,56.19324493400006,-126.86124745099994,Community,UNP,50000,0d01e6bd849c20c32b8b971656086c67
JBSWI,,Bear Lake (Cariboo Land District),Bear Lake (Cariboo Land District),BC,Cariboo Land District,54.495906313000035,-122.67921957799996,Community,UNP,1000000,8240cb9ac6be11d892e2080020a0f4c9
EIJYY,,Val-des-Bois (Papineau),Val-des-Bois (Papineau),QC,Val-des-Bois; Papineau,45.897496157000035,-75.60619963599999,Municipality,VILG,250000,0af3f4f0be5411d892e2080020a0f4c9
EIJYX,,Val-des-Bois (La Vallée-de-l'Or),Val-des-Bois (La Vallée-de-l'Or),QC,Val-d'Or; La Vallée-de-l'Or,48.15162858700006,-77.75422113999997,Hamlet,UNP,250000,0adb8aefbe5411d892e2080020a0f4c9
EHYVO,,Saint-Augustin (Maria-Chapdelaine),Saint-Augustin (Maria-Chapdelaine),QC,Saint-Augustin; Maria-Chapdelaine,48.805612636000035,-71.94984193399995,Parish Municipality,VILG,250000,d589a8e9be4c11d892e2080020a0f4c9
EPOZK,,Saint-Augustin (Le Golfe-du-Saint-Laurent),Saint-Augustin (Le Golfe-du-Saint-Laurent),QC,Saint-Augustin; Le Golfe-du-Saint-Laurent,51.21697452400008,-58.635199960999955,Municipality,VILG,250000,0cc31977849c20c34f7f836c98a83c7c
EHYVM,,Saint-Augustin (Mirabel),Saint-Augustin (Mirabel),QC,Mirabel; Mirabel,45.63057162400003,-73.98683169999998,Village,UNP,250000,d39d9057be4c11d892e2080020a0f4c9
ESBHX,,Sainte-Sabine (Brome-Missisquoi),Sainte-Sabine (Brome-Missisquoi),QC,Sainte-Sabine; Brome-Missisquoi,45.22661002500007,-73.02002384099995,Municipality,VILG,250000,2fb1cbf0be4d11d892e2080020a0f4c9
EHZQA,,Sainte-Sabine (Les Etchemins),Sainte-Sabine (Les Etchemins),QC,Sainte-Sabine; Les Etchemins,46.49364060000005,-70.35312480099998,Parish Municipality,VILG,50000,2fb8d0d1be4d11d892e2080020a0f4c9
FCKYO,,Richmond (Carleton),Richmond (Carleton),ON,Carleton,45.191917981000074,-75.83644714299999,Suburban Community,UNP,1000000,4dabffe2c6ce11d892e2080020a0f4c9
FAFMY,,Richmond (Elgin),Richmond (Elgin),ON,Elgin,42.763888800000075,-80.84472219899999,Compact Rural Community,UNP,250000,5b5d0ca1d05211d892e2080020a0f4c9
DAJSI,,Harvey (Albert),Harvey (Albert),NB,Albert,45.72565927200003,-64.70880546799998,Dispersed Rural Community,UNP,250000,0c7c4a8f849c20c3644b17665dc687e1
DAJSJ,,Harvey (York),Harvey (York),NB,York,45.729241142000035,-67.00423799299995,Village,VILG,1000000,0e0edcd7ca0211d892e2080020a0f4c9
EIAWU,,Saint-Rédempteur (Vaudreuil-Soulanges),Saint-Rédempteur (Vaudreuil-Soulanges),QC,Très-Saint-Rédempteur; Vaudreuil-Soulanges,45.432821200000035,-74.39100899999994,Hamlet,UNP,250000,c9fab70fbe4d11d892e2080020a0f4c9
EREAK,,Saint-Rédempteur (Lévis),Saint-Rédempteur (Lévis),QC,Lévis; Lévis,46.69342599000004,-71.29078367999995,Administrative Sector,UNP,50000,0d0a97dc849c20c3b027ded577dac2e5
EJYOC,,Saint-Léon (La Côte-de-Beaupré),Saint-Léon (La Côte-de-Beaupré),QC,Saint-Tite-des-Caps; La Côte-de-Beaupré,47.169073050000065,-70.79591852499993,Hamlet,UNP,250000,a0a45aa7bfae11d892e2080020a0f4c9
EIAIE,,Saint-Léon (Maskinongé),Saint-Léon (Maskinongé),QC,Saint-Léon-le-Grand; Maskinongé,46.31391740000004,-72.93567839999997,Hamlet,UNP,250000,8b38e37bbe4d11d892e2080020a0f4c9
EREDI,,Saint-Georges (Shawinigan),Saint-Georges (Shawinigan),QC,Shawinigan; Shawinigan,46.625027000000046,-72.65789349999994,Administrative Sector,UNP,50000,0d0a9f1b849c20c347aa8be9e7156532
ENOJD,,Saint-Georges (Manicouagan),Saint-Georges (Manicouagan),QC,Baie-Comeau; Manicouagan,49.239628968000034,-68.14354246399995,Neighbourhood,UNP,50000,16f1d126d1e211d892e2080020a0f4c9
EJBSM,,Saint-Georges (Beauce-Sartigan),Saint-Georges (Beauce-Sartigan),QC,Saint-Georges; Beauce-Sartigan,46.11656321100003,-70.67027174699996,Town,CITY,7500000,616f0fd5bf1011d892e2080020a0f4c9
EHYMU,,Sacré-Coeur (La Haute-Côte-Nord),Sacré-Coeur (La Haute-Côte-Nord),QC,Sacré-Coeur; La Haute-Côte-Nord,48.233299156000044,-69.80000260599996,Municipality,VILG,250000,b31417edbe4c11d892e2080020a0f4c9
EHYMV,,Sacré-Coeur (Rimouski-Neigette),Sacré-Coeur (Rimouski-Neigette),QC,Rimouski; Rimouski-Neigette,48.42559170000004,-68.58780039999994,Administrative Sector,UNP,250000,b321fa9ebe4c11d892e2080020a0f4c9
EJVLL,,Sainte-Gertrude (Abitibi),Sainte-Gertrude (Abitibi),QC,Sainte-Gertrude-Manneville; Abitibi,48.51814650000006,-78.30977599999994,Hamlet,UNP,250000,b0a25c38bfac11d892e2080020a0f4c9
EPZQC,,Sainte-Gertrude (Bécancour),Sainte-Gertrude (Bécancour),QC,Bécancour; Bécancour,46.30229641200003,-72.27691612499996,Administrative Sector,UNP,50000,0ced2462849c20c39a1826e06309f01e
ERBUQ,,Saint-Damase (Les Maskoutains),Saint-Damase (Les Maskoutains),QC,Saint-Damase; Les Maskoutains,45.527261700000054,-73.00873639899999,Municipality,VILG,1000000,0d0a0762849c20c3a3f2ce36e2a1825e
EHZBA,,Saint-Damase (La Matapédia),Saint-Damase (La Matapédia),QC,Saint-Damase; La Matapédia,48.66254310000005,-67.82722839999997,Parish Municipality,VILG,50000,fabf911bbe4c11d892e2080020a0f4c9
CBSUJ,,Cambridge (Kings),Cambridge (Kings),NS,Kings,45.05791998600006,-64.63575530299994,Community,UNP,50000,1fc17c11affd11d892e2080020a0f4c9
CAFSY,,Cambridge (Hants),Cambridge (Hants),NS,Hants,45.20129729700005,-64.10517838999994,Community,UNP,250000,b947ed7aaf5111d892e2080020a0f4c9
EITTO,,Saint-Stanislas (Les Chenaux),Saint-Stanislas (Les Chenaux),QC,Saint-Stanislas; Les Chenaux,46.61113780000005,-72.38538649899994,Municipality,VILG,250000,c4efaed6bf0a11d892e2080020a0f4c9
EIAZT,,Saint-Stanislas (Maria-Chapdelaine),Saint-Stanislas (Maria-Chapdelaine),QC,Saint-Stanislas; Maria-Chapdelaine,49.00586281500006,-72.17995444799993,Municipality,VILG,250000,d71d99b8be4d11d892e2080020a0f4c9
EHZIG,,Saint-Édouard (Les Maskoutains),Saint-Édouard (Les Maskoutains),QC,Saint-Liboire; Les Maskoutains,45.68836890000006,-72.80567679999996,Hamlet,UNP,250000,155990f7be4d11d892e2080020a0f4c9
EJDBP,,Saint-Édouard (Lotbinière),Saint-Édouard (Lotbinière),QC,Saint-Édouard-de-Lotbinière; Lotbinière,46.56891440000004,-71.83648800099996,Village,UNP,1000000,15dec608bf1111d892e2080020a0f4c9
EHZIH,,Saint-Édouard (Les Jardins-de-Napierville),Saint-Édouard (Les Jardins-de-Napierville),QC,Saint-Édouard; Les Jardins-de-Napierville,45.23976444500005,-73.51004714699997,Municipality,VILG,250000,1560e3f8be4d11d892e2080020a0f4c9
EGYIC,,Laval (Laval),Laval (Laval),QC,Laval; Laval,45.585426477000055,-73.75055360199997,Town,CITY,1000000,4e56e74dbe3211d892e2080020a0f4c9
EGYIK,,Laval (Bécancour),Laval (Bécancour),QC,Bécancour; Bécancour,46.33353456100008,-72.51218288999996,Administrative Sector,UNP,50000,5110fe44be3211d892e2080020a0f4c9
JBIPO,,Shuswap (Kamloops Division Yale Land District),Shuswap (Kamloops Division Yale Land District),BC,Kamloops Division Yale Land District,50.78960699600003,-119.70875272399996,Community,UNP,250000,0c9c7d38849c20c3aa3eb0f8c7b3d37a
DAUES,,Lakeville (Westmorland),Lakeville (Westmorland),NB,Westmorland,46.148859608000066,-64.67542802299994,Dispersed Rural Community,UNP,250000,0c806a0f849c20c349348e9a0e166e26
DAUEU,,Lakeville (Carleton),Lakeville (Carleton),NB,Carleton,46.33736323000005,-67.68597763999998,Dispersed Rural Community,UNP,1000000,0c806a50849c20c3e0881475e87776c3
JBCTT,,Paul Lake Park,Paul Lake Park,BC,Kamloops Division Yale Land District,50.74166700000001,-120.129167,Provincial Park,PARK,1000000,b68e0309d05411d892e2080020a0f4c9
FDTYT,,Sandbanks Provincial Park,Sandbanks Provincial Park,ON,Prince Edward,43.91861119999999,-77.2936111,Provincial Park,PARK,1000000,12152c1abbe211d892e2080020a0f4c9
FAAAZ,,Charleston Lake Provincial Park,Charleston Lake Provincial Park,ON,Leeds,44.51972219999999,-76.0383333,Provincial Park,PARK,1000000,0e2be4a2bbe211d892e2080020a0f4c9
FIDPN,,St. Raphael Provincial Park,St. Raphael Provincial Park,ON,,50.7671,-90.901667,Provincial Park,PARK,50000,09c8c74151874cf695d1815a911a0c44
CBUJB,,Cabot's Landing Provincial Park,Cabot's Landing Provincial Park,NS,Victoria,46.942722,-60.466846000000004,Provincial Park,PARK,1000000,8b5500edaffd11d892e2080020a0f4c9
ERKEQ,,Parc national d'Oka,Parc national d'Oka,QC,Oka; Deux-Montagnes,45.478055600000005,-74.0244444,National Park,PARK,1000000,0fdc1016849c20c374f32c756d881057
FEPUU,,Bigwind Lake Provincial Park,Bigwind Lake Provincial Park,ON,Muskoka,45.07092,-79.02402,Provincial Park,PARK,1000000,15d875fdbbe211d892e2080020a0f4c9
JDBYD,,Meziadin Lake Park,Meziadin Lake Park,BC,Cassiar Land District,56.087500000000006,-129.301944,Provincial Park,PARK,1000000,9b8bd693d05511d892e2080020a0f4c9
FIDNE,,Goulais River Provincial Park,Goulais River Provincial Park,ON,Lunkie,46.99731299999999,-83.912727,Provincial Park,PARK,50000,06e6a4e964e14c5b82a0dbea0aff3a92
GABCJ,,Asessippi Provincial Park,Asessippi Provincial Park,MB,,50.96638899999999,-101.37972,Provincial Park,PARK,1000000,45d0d9dabedb11d892e2080020a0f4c9
CALFH,,Ellenwood Lake Provincial Park,Ellenwood Lake Provincial Park,NS,Yarmouth,43.927347999999995,-65.997052,Provincial Park,PARK,1000000,e3f0914eaf5e11d892e2080020a0f4c9
JDCLA,,Teakerne Arm Park,Teakerne Arm Park,BC,New Westminster Land District,50.202777999999995,-124.845,Provincial Park,PARK,1000000,0abc2764d05511d892e2080020a0f4c9
FEUUU,,Fawn River Provincial Park,Fawn River Provincial Park,ON,Kenora,53.83261200000001,-89.544203,Provincial Park,PARK,1000000,18151fbcbbe211d892e2080020a0f4c9
CAGQD,,Central Grove Provincial Park,Central Grove Provincial Park,NS,Digby,44.334705000000014,-66.275608,Provincial Park,PARK,1000000,45f41fdfaf5411d892e2080020a0f4c9
CBNCF,,Valleyview Provincial Park,Valleyview Provincial Park,NS,Annapolis,44.87143499999999,-65.312464,Provincial Park,PARK,1000000,49567d07aff611d892e2080020a0f4c9
JAQUJ,,Elk Valley Park,Elk Valley Park,BC,Kootenay Land District,49.62361100000001,-114.938056,Provincial Park,PARK,1000000,0c9345c7849c20c39f6b0322723e5aab
CBUET,,Clam Harbour Beach Provincial Park,Clam Harbour Beach Provincial Park,NS,Halifax,44.73151300000001,-62.891361,Provincial Park,PARK,1000000,584fc8b8affd11d892e2080020a0f4c9
FDSVX,,Neys Provincial Park,Neys Provincial Park,ON,Thunder Bay,48.754999999999995,-86.5761111,Provincial Park,PARK,1000000,117f54adbbe211d892e2080020a0f4c9
JAONQ,,Mount Robson Park,Mount Robson Park,BC,Cariboo Land District,52.966667,-118.83333300000001,Provincial Park,PARK,1000000,0c92141c849c20c3311695c99cba1a48
FEUVF,,Little Current River Provincial Park,Little Current River Provincial Park,ON,Cochrane,50.71564599999999,-86.184425,Provincial Park,PARK,1000000,18605995bbe211d892e2080020a0f4c9
HAXDZ,,Saint Victor Petroglyphs Provincial Park,Saint Victor Petroglyphs Provincial Park,SK,,49.41148899999999,-105.8703822,Provincial Park,PARK,1000000,0cf4f40f849c20c3175c0e9e47fb86d9
JDLNC,,Titetown Park,Titetown Park,BC,,53.28472199999999,-123.745833,Provincial Park,PARK,50000,cdf856870a0012040c60641e643ab907
JBNHB,,Whiteswan Lake Park,Whiteswan Lake Park,BC,Kootenay Land District,50.15555599999999,-115.465278,Provincial Park,PARK,1000000,0c9ee23c849c20c36868dddb075dcb6a
FDYXS,,Sandbar Lake Provincial Park,Sandbar Lake Provincial Park,ON,Kenora,49.46682000000001,-91.55872,Provincial Park,PARK,1000000,127db1f2bbe211d892e2080020a0f4c9
JDFJM,,Purcell Wilderness Conservancy Park,Purcell Wilderness Conservancy Park,BC,Kootenay Land District,50.150000000000006,-116.533333,Provincial Park,PARK,1000000,19d1b167d05511d892e2080020a0f4c9
FCCPF,,MacGregor Point Provincial Park,MacGregor Point Provincial Park,ON,Bruce,44.40956,-81.46915,Provincial Park,PARK,1000000,0f6e9cf7bbe211d892e2080020a0f4c9
JDLMN,,Big Basin Park,Big Basin Park,BC,Lillooet Land District,51.37638899999999,-122.643056,Provincial Park,PARK,50000,6581ab510a001204612e4ffadc22a503
CBUMW,,Porter's Lake Provincial Park,Porter's Lake Provincial Park,NS,Halifax,44.68785299999999,-63.301559999999995,Provincial Park,PARK,1000000,a1c9e7e0affd11d892e2080020a0f4c9
BAAOD,,Cabot Provincial Park,Cabot Provincial Park,PE,Prince,46.55725899999999,-63.694379,Provincial Park,PARK,1000000,ce8909a5d05311d892e2080020a0f4c9
GBLBO,,Lockport Provincial Park,Lockport Provincial Park,MB,Parish of St. Andrews,50.08583300000001,-96.936389,Provincial Park,PARK,1000000,38cb96a6bef911d892e2080020a0f4c9
JDHBL,,Redfern-Keily Park,Redfern-Keily Park,BC,Peace River Land District,57.42083299999999,-123.9,Provincial Park,PARK,1000000,8a2a397dd05511d892e2080020a0f4c9
JBLKN,,Top of the World Park,Top of the World Park,BC,Kootenay Land District,49.85499999999999,-115.408333,Provincial Park,PARK,1000000,0c9ddffb849c20c3f2bd0ce9ef81a29f
FDTQB,,Mark S. Burnham Provincial Park,Mark S. Burnham Provincial Park,ON,Peterborough,44.29988,-78.26917,Provincial Park,PARK,1000000,11f39a57bbe211d892e2080020a0f4c9
JBJXU,,West Shawnigan Lake Park,West Shawnigan Lake Park,BC,Malahat Land District,48.64166700000001,-123.651667,Provincial Park,PARK,1000000,0c9d3378849c20c368ffea73f41ec5c9
JCXEY,,Buckinghorse River Wayside Park,Buckinghorse River Wayside Park,BC,Peace River Land District,57.38499999999999,-122.84305599999999,Provincial Park,PARK,1000000,0779f470d05511d892e2080020a0f4c9
BACNU,,Union Corner Provincial Park,Union Corner Provincial Park,PE,Prince,46.388206999999994,-63.994552999999996,Provincial Park,PARK,1000000,0c0b2059849c20c30abde43113d879f4
FEPWA,,Short Hills Provincial Park,Short Hills Provincial Park,ON,Niagara,43.09649999999999,-79.28421,Provincial Park,PARK,1000000,1740b8a4bbe211d892e2080020a0f4c9
CBUFP,,Mabou Provincial Park,Mabou Provincial Park,NS,Inverness,46.08168499999999,-61.37284,Provincial Park,PARK,1000000,779bde8caffd11d892e2080020a0f4c9
JDGKC,,Walhachin Oxbows Park,Walhachin Oxbows Park,BC,Kamloops Division Yale Land District,50.7511111,-120.9308333,Provincial Park,PARK,1000000,1fd7987ed05511d892e2080020a0f4c9
IADJQ,,Little Bow Provincial Park,Little Bow Provincial Park,AB,15-22-W4,50.23027780000001,-112.9297222,Provincial Park,PARK,1000000,0c83c163849c20c34eba2d49212c4614
GBLCT,,Grand Valley Provincial Park,Grand Valley Provincial Park,MB,10-20W,49.873333,-100.08444,Provincial Park,PARK,1000000,3f359555bef911d892e2080020a0f4c9
BAEUN,,Fisherman's Haven Provincial Park,Fisherman's Haven Provincial Park,PE,Prince,46.933333000000005,-63.983333,Provincial Park,PARK,1000000,0c0b9de8849c20c3874d4c155898d1d8
ABMKT,,Jonathan's Pond Provincial Park,Jonathan's Pond Provincial Park,NL,Gander; Fogo,49.053888900000004,-54.5822223,Provincial Park,PARK,1000000,eb7ed3d6d05311d892e2080020a0f4c9
GBLBM,,Lake St. Andrew Provincial Park,Lake St. Andrew Provincial Park,MB,31-1E,51.68083300000001,-97.404444,Provincial Park,PARK,1000000,3879f434bef911d892e2080020a0f4c9
FIDOF,,Magnetawan River Provincial Park,Magnetawan River Provincial Park,ON,Brown,45.75979899999999,-80.253942,Provincial Park,PARK,50000,d5b62f8824e34ec796c3e8d04fd566b8
JDIMW,,Skookumchuck Rapids Park,Skookumchuck Rapids Park,BC,Kamloops Division Yale Land District,50.61277799999999,-118.753611,Provincial Park,PARK,50000,001afc060a001204431029a3a5c96624
JCAQX,,Loon Lake Park,Loon Lake Park,BC,Lillooet Land District,51.105278,-121.257778,Provincial Park,PARK,1000000,0ca5d614849c20c3d79f04f8cc593ac4
JDHAT,,Finger-Tatuk Park,Finger-Tatuk Park,BC,Range 4 Coast Land District,53.511111,-124.225,Provincial Park,PARK,1000000,713ed451d05511d892e2080020a0f4c9
HAWCN,,Danielson Provincial Park,Danielson Provincial Park,SK,"26,27-6,7-W3",51.24878290000001,-106.8860239,Provincial Park,PARK,1000000,0d023c5f849c20c31f1aed2e0f4441eb
JCXFC,,Drewry Point Park,Drewry Point Park,BC,Kootenay Land District,49.415278,-116.811111,Provincial Park,PARK,1000000,079062a2d05511d892e2080020a0f4c9
JDGJA,,Bishop River Park,Bishop River Park,BC,Range 1 Coast Land District,50.91666699999999,-124.03333,Provincial Park,PARK,1000000,1ef9947bd05511d892e2080020a0f4c9
GBLDG,,Portage Spillway Provincial Park,Portage Spillway Provincial Park,MB,"26,27-11-7W",49.94888900000001,-98.328889,Provincial Park,PARK,1000000,4178a792bef911d892e2080020a0f4c9
IAFNH,,Rochon Sands Provincial Park,Rochon Sands Provincial Park,AB,"40-20,21-W4",52.46083329999999,-112.8875,Provincial Park,PARK,1000000,0c84c93c849c20c3c42737d6c2bd0527
JDCKU,,Buccaneer Bay Park,Buccaneer Bay Park,BC,New Westminster Land District,49.495000000000005,-123.99083300000001,Provincial Park,PARK,1000000,0aa78df2d05511d892e2080020a0f4c9
JADHP,,Inkaneep Park,Inkaneep Park,BC,Similkameen Division Yale Land District,49.22638900000001,-119.54166699999999,Provincial Park,PARK,1000000,0c8bc153849c20c3b3c1bca316ee17a5
GBLDA,,Moose Lake Provincial Park,Moose Lake Provincial Park,MB,3-16E,49.211667000000006,-95.316111,Provincial Park,PARK,1000000,3fe9ca2cbef911d892e2080020a0f4c9
FDJAR,,Petroglyphs Provincial Park,Petroglyphs Provincial Park,ON,Peterborough,44.62055559999999,-78.0461111,Provincial Park,PARK,1000000,1100fcdfbbe211d892e2080020a0f4c9
FDEHY,,Windy Lake Provincial Park,Windy Lake Provincial Park,ON,Sudbury,46.619067,-81.447902,Provincial Park,PARK,1000000,10e33badbbe211d892e2080020a0f4c9
JDHBO,,Mount Richardson Park,Mount Richardson Park,BC,New Westminster Land District,49.56805600000001,-123.761111,Provincial Park,PARK,1000000,68666d0ad05511d892e2080020a0f4c9
JCKBZ,,Crooked River Park,Crooked River Park,BC,Cariboo Land District,54.474999999999994,-122.683333,Provincial Park,PARK,1000000,0ca82b94849c20c3f896ee9aed695155
BAEUB,,Tea Hill Provincial Park,Tea Hill Provincial Park,PE,Queens,46.19999999999999,-63.066666999999995,Provincial Park,PARK,1000000,0c0b9b49849c20c3ab7fcea685677d96
JAQAY,,Nancy Greene Park,Nancy Greene Park,BC,Kootenay Land District,49.255278000000004,-117.941667,Provincial Park,PARK,1000000,0c92d7e9849c20c30a41eb9f9f28cb0b
JDLMS,,Dragon Mountain Park,Dragon Mountain Park,BC,Cariboo Land District,52.88333299999999,-122.359722,Provincial Park,PARK,50000,6581daad0a001204181f93f83d9ac26e
BAEUJ,,Northumberland Provincial Park,Northumberland Provincial Park,PE,Queens,45.963392,-62.720740000000006,Provincial Park,PARK,1000000,0c0b9c9f849c20c37c324f4842b552af
JDFOJ,,Harry Lake Aspen Park,Harry Lake Aspen Park,BC,Kamloops Division Yale Land District,50.79166660000001,-121.54166670000001,Provincial Park,PARK,1000000,1af80911d05511d892e2080020a0f4c9
EKYDJ,,Parc national du Mont-Saint-Bruno,Parc national du Mont-Saint-Bruno,QC,Saint-Bruno-de-Montarville; Saint-Bruno-de-Montarville,45.54999989999999,-73.3166666,National Park,PARK,1000000,0eee899cd1e111d892e2080020a0f4c9
ABMKE,,Fitzgerald's Pond Provincial Park,Fitzgerald's Pond Provincial Park,NL,Placentia,47.3341667,-53.7386111,Provincial Park,PARK,1000000,ebaac5dad05311d892e2080020a0f4c9
FEPVD,,Hardy Lake Provincial Park,Hardy Lake Provincial Park,ON,Muskoka,45.011111099999994,-79.5244445,Provincial Park,PARK,1000000,1615a611bbe211d892e2080020a0f4c9
JDHBJ,,Prophet River Hot Springs Park,Prophet River Hot Springs Park,BC,Peace River Land District,57.65305599999999,-124.026111,Provincial Park,PARK,1000000,8a40809fd05511d892e2080020a0f4c9
FIDOL,,Noganosh Lake Provincial Park,Noganosh Lake Provincial Park,ON,Brown,45.82226800000001,-80.229604,Provincial Park,PARK,50000,c63cd015cceb47aebf4c436a96fd4e3a
JAFFP,,Echo Lake Park,Echo Lake Park,BC,Osoyoos Division Yale Land District,50.203056000000004,-118.70777799999999,Provincial Park,PARK,1000000,0c8cd3aa849c20c37aa333e62cc2a911
JDFTS,,Caligata Lake Park,Caligata Lake Park,BC,Kamloops Division Yale Land District,51.74111099999999,-119.836944,Provincial Park,PARK,1000000,1a70feb5d05511d892e2080020a0f4c9
JBANC,,Driftwood Canyon Park,Driftwood Canyon Park,BC,Range 5 Coast Land District,54.826389000000006,-127.022222,Provincial Park,PARK,1000000,0c984aaf849c20c3ced72f3dee3cd6a2
JDFFQ,,Goat Range Park,Goat Range Park,BC,Kootenay Land District,50.316666999999995,-117.283333,Provincial Park,PARK,1000000,1523451fd05511d892e2080020a0f4c9
FEPVA,,Forks of the Credit Provincial Park,Forks of the Credit Provincial Park,ON,Peel,43.81593000000001,-80.0126,Provincial Park,PARK,1000000,15efa77fbbe211d892e2080020a0f4c9
GBLDD,,Patricia Beach Provincial Park,Patricia Beach Provincial Park,MB,17-7E,50.42694399999999,-96.606111,Provincial Park,PARK,1000000,4142f18fbef911d892e2080020a0f4c9
IBAAT,,Sundance Provincial Park,Sundance Provincial Park,AB,16-16-54-20-5,53.67027780000001,-116.8669444,Provincial Park,PARK,50000,b421176330c911dda869080020a0f4c9
JDLMX,,Patterson Lake Park,Patterson Lake Park,BC,Range 2 Coast Land District,51.879166999999995,-124.65555499999999,Provincial Park,PARK,50000,65820c1e0a0012044b2b74141a47a023
FBULV,,Killbear Provincial Park,Killbear Provincial Park,ON,Parry Sound,45.35485,-80.19831,Provincial Park,PARK,1000000,0f364ee1bbe211d892e2080020a0f4c9
BADQP,,Pinette Provincial Park,Pinette Provincial Park,PE,Queens,46.055690999999996,-62.911033,Provincial Park,PARK,1000000,d34384e0d05311d892e2080020a0f4c9
JDFHS,,Vargas Island Park,Vargas Island Park,BC,Clayoquot Land District,49.189167,-126.03055599999999,Provincial Park,PARK,1000000,16b026d2d05511d892e2080020a0f4c9
HAWVE,,Athabasca Sand Dunes Provincial Park,Athabasca Sand Dunes Provincial Park,SK,,59.158058600000004,-108.6218949,Provincial Park,PARK,1000000,1762ae02d05511d892e2080020a0f4c9
CBUEY,,Arisaig Provincial Park,Arisaig Provincial Park,NS,Antigonish,45.75567000000001,-62.167506,Provincial Park,PARK,1000000,5eb3adccaffd11d892e2080020a0f4c9
JANTA,,Stemwinder Park,Stemwinder Park,BC,Similkameen Division Yale Land District,49.37111100000001,-120.136667,Provincial Park,PARK,1000000,0c919ffb849c20c3743c379e501936ca
GBSLT,,Criddle/Vane Homestead Provincial Park,Criddle/Vane Homestead Provincial Park,MB,,49.70860999999999,-99.60417,Provincial Park,PARK,50000,07159c850a0012045cf1f482cbcdddef
FBQWU,,Ivanhoe Lake Provincial Park,Ivanhoe Lake Provincial Park,ON,Sudbury,48.14914999999999,-82.51183,Provincial Park,PARK,1000000,0f0f65ebbbe211d892e2080020a0f4c9
JDHBH,,Northern Rocky Mountains Park,Northern Rocky Mountains Park,BC,Peace River Land District,58.19138899999999,-124.36361099999999,Provincial Park,PARK,1000000,8a4b7d20d05511d892e2080020a0f4c9
JDDIQ,,Rearguard Falls Park,Rearguard Falls Park,BC,Cariboo Land District,52.973889000000014,-119.36583300000001,Provincial Park,PARK,1000000,0d5743e1d05511d892e2080020a0f4c9
BAETW,,Wood Islands Provincial Park,Wood Islands Provincial Park,PE,Queens,45.950469999999996,-62.745127,Provincial Park,PARK,1000000,0c0b9a83849c20c33d98b6f26748d7c9
JDFOF,,Upper Adams River Park,Upper Adams River Park,BC,Kamloops Division Yale Land District,51.61944399999999,-119.20833300000001,Provincial Park,PARK,1000000,1bfc32b8d05511d892e2080020a0f4c9
JDFHO,,Nuntsi Park,Nuntsi Park,BC,Cariboo Land District,51.743055999999996,-123.784722,Provincial Park,PARK,1000000,9d0f1b55d05511d892e2080020a0f4c9
JBIPV,,Shuswap Lake Park,Shuswap Lake Park,BC,Kamloops Division Yale Land District,50.90861100000001,-119.43944400000001,Provincial Park,PARK,1000000,0c9c7e06849c20c336fb767e863d85c6
JDGJC,,Callaghan Lake Park,Callaghan Lake Park,BC,New Westminster Land District,50.207222,-123.188333,Provincial Park,PARK,1000000,1f13ac2dd05511d892e2080020a0f4c9
IARMS,,Notikewin Provincial Park,Notikewin Provincial Park,AB,"94,95,96-20-W5",57.22055549999999,-117.1402778,Provincial Park,PARK,1000000,0c8a0832849c20c3d0282ee39ff7f11f
JBODB,,Memory Island Park,Memory Island Park,BC,Malahat Land District,48.61166700000001,-123.633611,Provincial Park,PARK,1000000,0c9f3cc1849c20c3b6de0977c43491e9
FDWXD,,Selkirk Provincial Park,Selkirk Provincial Park,ON,Haldimand,42.813888899999995,-79.9588889,Provincial Park,PARK,1000000,122b251cbbe211d892e2080020a0f4c9
FCIJX,,Presqu'ile Provincial Park,Presqu'ile Provincial Park,ON,Northumberland,43.9938889,-77.7130555,Provincial Park,PARK,1000000,0f886689bbe211d892e2080020a0f4c9
JDGJR,,Mehatl Creek Park,Mehatl Creek Park,BC,New Westminster Land District,50.06388899999999,-122.061111,Provincial Park,PARK,1000000,7d086859d05511d892e2080020a0f4c9
CBUJA,,Lennox Passage Provincial Park,Lennox Passage Provincial Park,NS,Richmond,45.59259399999999,-61.021663000000004,Provincial Park,PARK,1000000,8b4633dcaffd11d892e2080020a0f4c9
BAALG,,Bonshaw Provincial Park,Bonshaw Provincial Park,PE,Queens,46.197832000000005,-63.350421,Provincial Park,PARK,1000000,cef1686ed05311d892e2080020a0f4c9
JDGKE,,White River Park,White River Park,BC,Rupert Land District,50.141110999999995,-126.033889,Provincial Park,PARK,1000000,1feea2f0d05511d892e2080020a0f4c9
CBUFK,,Greenhill Provincial Park,Greenhill Provincial Park,NS,Pictou,45.58287100000001,-62.793852,Provincial Park,PARK,1000000,6ee2bed8affd11d892e2080020a0f4c9
IADKH,,Little Fish Lake Provincial Park,Little Fish Lake Provincial Park,AB,28-16-W4,51.372777799999994,-112.1991667,Provincial Park,PARK,1000000,0c83c3b0849c20c3094ec3b059afdcbd
OBCLF,,Qaummaarviit Territorial Park,Qaummaarviit Territorial Park,NU,,63.72999999999999,-68.69,Territorial Park,PARK,50000,60d0848d0a00120433ff9d539755d164
HAWCM,,Cypress Hills Provincial Park,Cypress Hills Provincial Park,SK,,49.634499000000005,-109.750084,Provincial Park,PARK,1000000,0c32a882849c20c3c405f806864b965f
FEPVK,,Makobe-Grays River Provincial Park,Makobe-Grays River Provincial Park,ON,Timiskaming,47.62601000000001,-80.39381,Provincial Park,PARK,1000000,16a059e7bbe211d892e2080020a0f4c9
JDHOC,,Tuya Mountains Park,Tuya Mountains Park,BC,Cassiar Land District,59.172222000000005,-130.5,Provincial Park,PARK,1000000,54cda379d05511d892e2080020a0f4c9
FIDFQ,,Abitibi-De-Troyes Provincial Park,Abitibi-De-Troyes Provincial Park,ON,Rickard,48.75207399999999,-80.045679,Provincial Park,PARK,250000,b7b7eccad34c4f619223e87e0eaed1e8
JDHLX,,Border Lake Park,Border Lake Park,BC,Cassiar Land District,56.35499999999999,-130.713056,Provincial Park,PARK,1000000,9a156312d05511d892e2080020a0f4c9
FEVKH,,Brightsand River Provincial Park,Brightsand River Provincial Park,ON,Thunder Bay,49.805372000000006,-90.282892,Provincial Park,PARK,1000000,1a7f6833bbe211d892e2080020a0f4c9
FEPVO,,Mono Cliffs Provincial Park,Mono Cliffs Provincial Park,ON,Dufferin,44.04527780000001,-80.0763889,Provincial Park,PARK,1000000,16c2d60abbe211d892e2080020a0f4c9
FCTJO,,Sturgeon Bay Provincial Park,Sturgeon Bay Provincial Park,ON,Parry Sound,45.623639999999995,-80.41538,Provincial Park,PARK,1000000,10282905bbe211d892e2080020a0f4c9
ABMKF,,Flatwater Pond Provincial Park,Flatwater Pond Provincial Park,NL,Baie Verte-White Bay,49.7561111,-56.311666599999995,Provincial Park,PARK,1000000,eb94ccd8d05311d892e2080020a0f4c9
GBLBP,,Marchand Provincial Park,Marchand Provincial Park,MB,5-9E,49.432500000000005,-96.274722,Provincial Park,PARK,1000000,38ef2437bef911d892e2080020a0f4c9
FBDYN,,Ferris Provincial Park,Ferris Provincial Park,ON,Northumberland,44.2919445,-77.7938889,Provincial Park,PARK,1000000,0eb97db1bbe211d892e2080020a0f4c9
JDHNF,,Mudzenchoot Park,Mudzenchoot Park,BC,Cassiar Land District,55.03888900000001,-124.441667,Provincial Park,PARK,1000000,9b1c99f9d05511d892e2080020a0f4c9
FDSVK,,Pakwash Provincial Park,Pakwash Provincial Park,ON,Kenora,50.785,-93.4413889,Provincial Park,PARK,1000000,115f7098bbe211d892e2080020a0f4c9
JDFSS,,Harbour-Dudgeon Lakes Park,Harbour-Dudgeon Lakes Park,BC,Kamloops Division Yale Land District,51.572778,-119.15777800000001,Provincial Park,PARK,1000000,1aecbe70d05511d892e2080020a0f4c9
JDFGE,,Kennedy River Bog Park,Kennedy River Bog Park,BC,Clayoquot Land District,49.09722199999999,-125.622222,Provincial Park,PARK,1000000,785e19c1d05511d892e2080020a0f4c9
JCXLS,,Bridal Veil Falls Park,Bridal Veil Falls Park,BC,Yale Division Yale Land District,49.18277800000001,-121.742222,Provincial Park,PARK,1000000,0caa0fc3849c20c3c11c49aa09226ef6
JBFZV,,Okanagan Lake Park,Okanagan Lake Park,BC,Osoyoos Division Yale Land District,49.68638899999999,-119.726944,Provincial Park,PARK,1000000,4e6726c9d05511d892e2080020a0f4c9
JBGHH,,Seeley Lake Park,Seeley Lake Park,BC,Cassiar Land District,55.198611,-127.690278,Provincial Park,PARK,1000000,0c9b489d849c20c31974a1426687a47f
BAAKZ,,Bloomfield Provincial Park,Bloomfield Provincial Park,PE,Prince,46.74565200000001,-64.187807,Provincial Park,PARK,1000000,7ba42abfc5f711d892e2080020a0f4c9
JDILV,,Hai Lake-Mount Herman Park,Hai Lake-Mount Herman Park,BC,Range 5 Coast Land District,54.41666699999999,-128.595833,Provincial Park,PARK,50000,d6616db10a0012041c6c0838436ff361
CBULF,,William E. DeGarthe Memorial Provincial Park,William E. DeGarthe Memorial Provincial Park,NS,Halifax,44.49404000000001,-63.914196000000004,Provincial Park,PARK,1000000,8f496cb2affd11d892e2080020a0f4c9
JCNDC,,Exchamsiks River Park,Exchamsiks River Park,BC,Range 5 Coast Land District,54.33583300000001,-129.296111,Provincial Park,PARK,1000000,0ca8bc1c849c20c34a04b50d886a3001
JDHNZ,,Todagin South Slope Park,Todagin South Slope Park,BC,Cassiar Land District,57.61666700000001,-129.915278,Provincial Park,PARK,1000000,50341ec1d05511d892e2080020a0f4c9
FIDPD,,River Aux Sables Provincial Park,River Aux Sables Provincial Park,ON,Mandamin,46.453097000000014,-82.179973,Provincial Park,PARK,50000,a1c26e8574ce49d1947ef659f0fa1e7f
JDCKV,,Boyle Point Park,Boyle Point Park,BC,Nanaimo Land District,49.48055600000001,-124.7,Provincial Park,PARK,1000000,0ab1ee33d05511d892e2080020a0f4c9
JDHOE,,Upper Seymour River Park,Upper Seymour River Park,BC,Kamloops Division Yale Land District,51.627778000000006,-118.933333,Provincial Park,PARK,1000000,64284dced05511d892e2080020a0f4c9
JCKRB,,Kitsumkalum Park,Kitsumkalum Park,BC,Range 5 Coast Land District,54.72194400000001,-128.771111,Provincial Park,PARK,1000000,d96e3c1dd05411d892e2080020a0f4c9
JAIIB,,Kiskatinaw Park,Kiskatinaw Park,BC,Peace River Land District,55.960556,-120.565278,Provincial Park,PARK,1000000,0cfac723849c20c3210235bf9085995d
JAORX,,Muncho Lake Park,Muncho Lake Park,BC,Peace River Land District,58.95833300000001,-125.743611,Provincial Park,PARK,1000000,0c9229ae849c20c3f8843674911e63be
HAWCP,,Echo Valley Provincial Park,Echo Valley Provincial Park,SK,12-14-W3,50.78812629999999,-103.8916951,Provincial Park,PARK,1000000,0d023cfc849c20c39ab01318877dc944
JDHAR,,Entiako Park,Entiako Park,BC,Range 4 Coast Land District,53.25,-125.55,Provincial Park,PARK,1000000,7107709cd05511d892e2080020a0f4c9
JCPQK,,Valhalla Park,Valhalla Park,BC,Kootenay Land District,49.872221999999994,-117.57333299999999,Provincial Park,PARK,1000000,0ca951dc849c20c355d91a174742cd09
JDGJS,,Pritchard Park,Pritchard Park,BC,Kamloops Division Yale Land District,50.684167,-119.83333300000001,Provincial Park,PARK,1000000,7d13b2fad05511d892e2080020a0f4c9
JDHNH,,Ningunsaw Park,Ningunsaw Park,BC,Cassiar Land District,56.838888999999995,-130.094444,Provincial Park,PARK,1000000,9b3292fbd05511d892e2080020a0f4c9
JDGJM,,Juan de Fuca Park,Juan de Fuca Park,BC,Renfrew Land District,48.486389,-124.283333,Provincial Park,PARK,1000000,1f4eb962d05511d892e2080020a0f4c9
JBKLH,,Silver Lake Park,Silver Lake Park,BC,Yale Division Yale Land District,49.31611100000001,-121.413611,Provincial Park,PARK,1000000,0cfb3b02849c20c38e7c222ebc3270c7
FIDES,,Batchawana Bay Provincial Park,Batchawana Bay Provincial Park,ON,Algoma,46.94257999999999,-84.55797,Provincial Park,PARK,1000000,d84a15f818ee4d63a102df8b25d6393b
FENFY,,Rainbow Falls Provincial Park,Rainbow Falls Provincial Park,ON,Thunder Bay,48.8475,-87.3922222,Provincial Park,PARK,1000000,1341c551bbe211d892e2080020a0f4c9
FDBEW,,Wasaga Beach Provincial Park,Wasaga Beach Provincial Park,ON,Simcoe,44.4938889,-80.0216667,Provincial Park,PARK,1000000,1098770bbbe211d892e2080020a0f4c9
FEUUN,,Albany River Provincial Park,Albany River Provincial Park,ON,Kenora; Thunder Bay; Cochrane,51.36250000000001,-87.775,Provincial Park,PARK,1000000,17d69015bbe211d892e2080020a0f4c9
JDHMT,,Iskut River Hot Springs Park,Iskut River Hot Springs Park,BC,Cassiar Land District,57.083889,-130.360556,Provincial Park,PARK,1000000,9aceef22d05511d892e2080020a0f4c9
JDFON,,Tsintsunko Lakes Park,Tsintsunko Lakes Park,BC,Kamloops Division Yale Land District,51.059167,-120.481944,Provincial Park,PARK,1000000,1be59d76d05511d892e2080020a0f4c9
JDFGJ,,Lockhart Creek Park,Lockhart Creek Park,BC,Kootenay Land District,49.502778000000006,-116.709722,Provincial Park,PARK,1000000,15be73bdd05511d892e2080020a0f4c9
FEZYN,,Big East River Provincial Park,Big East River Provincial Park,ON,Muskoka,45.46793500000001,-79.082848,Provincial Park,PARK,1000000,1bc1371bbbe211d892e2080020a0f4c9
JAAZU,,Boundary Creek Park,Boundary Creek Park,BC,Similkameen Division Yale Land District,49.05861100000001,-118.69666699999999,Provincial Park,PARK,1000000,0c8a89ff849c20c3547fe9571ea5b5ba
ABMJK,,Bellevue Beach Provincial Park,Bellevue Beach Provincial Park,NL,Bellevue,47.63388889999999,-53.766388899999995,Provincial Park,PARK,1000000,ebedc250d05311d892e2080020a0f4c9
FIDOJ,,Nimoosh Provincial Park,Nimoosh Provincial Park,ON,St Germain,48.027671,-85.210633,Provincial Park,PARK,50000,dc09758564a844d8b7406dd8f8e7f307
JBQWK,,Ryan Park,Ryan Park,BC,Kootenay Land District,49.136111,-116.03194400000001,Provincial Park,PARK,1000000,0ca0cc07849c20c36337ec042b4cbfb9
GBSLR,,South Atikaki Provincial Park,South Atikaki Provincial Park,MB,,51.049440000000004,-95.33611,Provincial Park,PARK,1000000,454d2f43bef911d892e2080020a0f4c9
JDDCC,,Strathcona-Westmin Park,Strathcona-Westmin Park,BC,Clayoquot Land District,49.578332999999986,-125.59472199999999,Provincial Park,PARK,1000000,0d07280ad05511d892e2080020a0f4c9
JDHAY,,Liard River Corridor Park,Liard River Corridor Park,BC,Peace River Land District,59.30000000000001,-125.383333,Provincial Park,PARK,1000000,86f5c225d05511d892e2080020a0f4c9
CBHFM,,Sand Hills Beach Provincial Park,Sand Hills Beach Provincial Park,NS,Shelburne,43.529673,-65.555251,Provincial Park,PARK,1000000,f867ea35afe911d892e2080020a0f4c9
JDFTM,,Roche Lake Park,Roche Lake Park,BC,Kamloops Division Yale Land District,50.473611000000005,-120.138889,Provincial Park,PARK,1000000,1bb89a02d05511d892e2080020a0f4c9
IADRV,,"Queen Elizabeth Provincial Park, Lac Cardinal","Queen Elizabeth Provincial Park, Lac Cardinal",AB,83-24-W5,56.21861100000001,-117.69388889999999,Provincial Park,PARK,1000000,c4e0016cd05211d892e2080020a0f4c9
FCLRS,,Rock Point Provincial Park,Rock Point Provincial Park,ON,Haldimand,42.84944440000001,-79.5541667,Provincial Park,PARK,1000000,0fa871acbbe211d892e2080020a0f4c9
ESFNE,,Parc national Kuururjuaq,Parc national Kuururjuaq,QC,Rivière-Koksoak; Rivière-Koksoak,58.599999999999994,-64.566667,National Park Reserve,PARK,50000,4ab75fd80a0012044b9631fe976f7c1f
CBUGE,,Smugglers Cove Provincial Park,Smugglers Cove Provincial Park,NS,Digby,44.16998100000001,-66.183379,Provincial Park,PARK,1000000,7f080bebaffd11d892e2080020a0f4c9
FIDTB,,Batchawana River Provincial Park,Batchawana River Provincial Park,ON,Norberg,47.133791,-84.415006,Provincial Park,PARK,50000,3b89b4f356f1448c9ca8d8095bfae6c2
GBSLV,,Manigotagan River Provincial Park,Manigotagan River Provincial Park,MB,,51.01389,-96.04417,Provincial Park,PARK,1000000,453c1842bef911d892e2080020a0f4c9
JDFFO,,Gilnockie Park,Gilnockie Park,BC,Kootenay Land District,49.087500000000006,-115.655556,Provincial Park,PARK,1000000,150d4c1dd05511d892e2080020a0f4c9
JDHLV,,Bocock Peak Park,Bocock Peak Park,BC,Peace River Land District,55.859722000000005,-122.919444,Provincial Park,PARK,1000000,99ff6a10d05511d892e2080020a0f4c9
JDHNO,,Seven Sisters Park,Seven Sisters Park,BC,Range 5 Coast Land District,54.955556,-128.013056,Provincial Park,PARK,1000000,9b758f71d05511d892e2080020a0f4c9
JDHOD,,Uncha Mountain Red Hills Park,Uncha Mountain Red Hills Park,BC,Range 4 Coast Land District,53.974166999999994,-125.533889,Provincial Park,PARK,1000000,5887777ad05511d892e2080020a0f4c9
JAPEH,,Dead Man's Island Park,Dead Man's Island Park,BC,Coast Land District,54.207222,-125.73222200000001,Provincial Park,PARK,1000000,0c9271e1849c20c35e0c75d2322fa56a
FEPVP,,Opasquia Provincial Park,Opasquia Provincial Park,ON,Kenora,53.511944400000004,-92.9786111,Provincial Park,PARK,1000000,16c98ccbbbe211d892e2080020a0f4c9
JDIME,,Mara Meadows Park,Mara Meadows Park,BC,Kamloops Division Yale Land District,50.70083299999999,-119.10583299999999,Provincial Park,PARK,50000,d661650c0a0012045fccda2b5d85f85e
CAEIT,,Blomidon Provincial Park,Blomidon Provincial Park,NS,Kings,45.265161000000006,-64.337321,Provincial Park,PARK,1000000,36806176af4f11d892e2080020a0f4c9
JDIOU,,Gwyneth Lake Park,Gwyneth Lake Park,BC,Lillooet Land District,50.78999999999999,-122.875556,Provincial Park,PARK,50000,93957c100a0012043c891d7684676285
FEUUX,,Indian Point Provincial Park,Indian Point Provincial Park,ON,Victoria,44.63454999999999,-78.823582,Provincial Park,PARK,1000000,1827482fbbe211d892e2080020a0f4c9
JCBLG,,North Thompson River Park,North Thompson River Park,BC,Kamloops Division Yale Land District,51.627778000000006,-120.087222,Provincial Park,PARK,1000000,0ca64b8c849c20c3099d6378a6f84a8d
JDFCB,,Akamina-Kishinena Park,Akamina-Kishinena Park,BC,Kootenay Land District,49.033333,-114.183333,Provincial Park,PARK,1000000,142f9639d05511d892e2080020a0f4c9
IAACI,,Young's Point Provincial Park,Young's Point Provincial Park,AB,"70,71-24-W5",55.14361109999999,-117.5672222,Provincial Park,PARK,1000000,0c829198849c20c3eb4655b7e7a9d95c
FDTPR,,Bonnechere Provincial Park,Bonnechere Provincial Park,ON,Renfrew,45.66210000000001,-77.57177,Provincial Park,PARK,1000000,11c20303bbe211d892e2080020a0f4c9
CBUEW,,Fancy Lake Provincial Park,Fancy Lake Provincial Park,NS,Lunenburg,44.32868400000001,-64.532067,Provincial Park,PARK,1000000,5e3a5f1baffd11d892e2080020a0f4c9
JCNXE,,Prudhomme Lake Park,Prudhomme Lake Park,BC,Range 5 Coast Land District,54.241389,-130.133333,Provincial Park,PARK,1000000,0ca8de77849c20c3717ff336de1f57d2
GBLDB,,Oak Lake Provincial Park,Oak Lake Provincial Park,MB,8-24W,49.681110399999994,-100.7098962,Provincial Park,PARK,1000000,3fff26edbef911d892e2080020a0f4c9
JAVKM,,Fillongley Park,Fillongley Park,BC,Nanaimo Land District,49.54388900000001,-124.7625,Provincial Park,PARK,1000000,0cfdf037849c20c32d57001a5f077eef
JDHMU,,Jackman Flats Park,Jackman Flats Park,BC,Cariboo Land District,52.93611100000001,-119.386111,Provincial Park,PARK,1000000,9d31be88d05511d892e2080020a0f4c9
JDFNN,,Santa Gertrudis-Boca del Infierno Park,Santa Gertrudis-Boca del Infierno Park,BC,Nootka Land District,49.61250000000001,-126.629722,Provincial Park,PARK,1000000,1f9426d8d05511d892e2080020a0f4c9
JABZI,,Alice Lake Park,Alice Lake Park,BC,New Westminster Land District,49.783333,-123.11667,Provincial Park,PARK,1000000,0c8b102a849c20c3b7e4dbc42e58f933
FEPVM,,Michipicoten Island Provincial Park,Michipicoten Island Provincial Park,ON,Thunder Bay,47.7511112,-85.7766666,Provincial Park,PARK,1000000,16ac40c8bbe211d892e2080020a0f4c9
CBUFA,,Tatamagouche Provincial Park,Tatamagouche Provincial Park,NS,Colchester,45.706999999999994,-63.268761999999995,Provincial Park,PARK,1000000,6717f6beaffd11d892e2080020a0f4c9
CBUEL,,Northport Beach Provincial Park,Northport Beach Provincial Park,NS,Cumberland,45.926232999999996,-63.844369,Provincial Park,PARK,1000000,35efbc31affd11d892e2080020a0f4c9
EAAAG,,Parc national d'Opémican,Parc national d'Opémican,QC,Témiscaming; Témiscamingue,46.889166700000004,-79.1069444,National Park,PARK,50000,40ff0638cfa944419a3369fd2449313f
JDFTJ,,High Lakes Basin Park,High Lakes Basin Park,BC,Kamloops Division Yale Land District,51.38249999999999,-120.417778,Provincial Park,PARK,1000000,1b032ca2d05511d892e2080020a0f4c9
JAZNW,,Nickel Plate Park,Nickel Plate Park,BC,Similkameen Division Yale Land District,49.40472199999999,-119.947778,Provincial Park,PARK,1000000,cc42b97ed05211d892e2080020a0f4c9
IARMO,,Cold Lake Provincial Park,Cold Lake Provincial Park,AB,63-1-W4,54.46666669999999,-110.1166667,Provincial Park,PARK,1000000,0c8a076c849c20c31edfc1eb3d3f0950
JBDHV,,Spectacle Lake Park,Spectacle Lake Park,BC,Malahat Land District,48.579722000000004,-123.570833,Provincial Park,PARK,1000000,0c99ba67849c20c39a0482b057b47770
GBLBZ,,Red Deer River Provincial Park,Red Deer River Provincial Park,MB,45-25W,52.891110999999995,-101.02556,Provincial Park,PARK,1000000,3b18e111bef911d892e2080020a0f4c9
HAXDR,,Cannington Manor Provincial Park,Cannington Manor Provincial Park,SK,,49.730777700000004,-102.0584046,Provincial Park,PARK,1000000,0cf4f348849c20c3004ba9cd1f65ca3a
JCPSA,,Crowsnest Park,Crowsnest Park,BC,Kootenay Land District,49.651943999999986,-114.699167,Provincial Park,PARK,1000000,63386f79d05511d892e2080020a0f4c9
JDEUE,,Bull Canyon Park,Bull Canyon Park,BC,Cariboo Land District,52.091667,-123.379167,Provincial Park,PARK,1000000,139c7defd05511d892e2080020a0f4c9
JDHBT,,Stuart River Park,Stuart River Park,BC,Cariboo Land District,54.06444400000001,-123.558333,Provincial Park,PARK,1000000,93c0e7c4d05511d892e2080020a0f4c9
FIDMJ,,Barron River Provincial Park,Barron River Provincial Park,ON,Renfrew,45.86667299999999,-77.472386,Provincial Park,PARK,50000,2387f18181754cc7ba3010395009332a
JDHNS,,Three Sisters Lakes Park,Three Sisters Lakes Park,BC,Cariboo Land District,53.535,-122.530833,Provincial Park,PARK,1000000,97276aa0d05511d892e2080020a0f4c9
JBLRY,,White Pelican Park,White Pelican Park,BC,Cariboo Land District,52.28888900000001,-123.025278,Provincial Park,PARK,1000000,4ff0d42bd05511d892e2080020a0f4c9
JAFEU,,Beaver Point Park,Beaver Point Park,BC,Saltspring Island Land District,48.771389,-123.403611,Provincial Park,PARK,1000000,0c8cd096849c20c3d9960c5f68713d39
JBJKG,,Roberts Creek Park,Roberts Creek Park,BC,New Westminster Land District,49.44222199999999,-123.673056,Provincial Park,PARK,1000000,0c9ceb94849c20c3122f380fcffc89b0
IBAAP,,Ram Falls Provincial Park,Ram Falls Provincial Park,AB,9-18-36-13-5,52.09694440000001,-115.8391667,Provincial Park,PARK,50000,4e5309cf30c811dda869080020a0f4c9
JDGKA,,Stawamus Chief Park,Stawamus Chief Park,BC,New Westminster Land District,49.68638899999999,-123.136944,Provincial Park,PARK,1000000,1fc1515cd05511d892e2080020a0f4c9
JBHVQ,,Thunder Hill Park,Thunder Hill Park,BC,Kootenay Land District,50.16805600000001,-115.855278,Provincial Park,PARK,1000000,5942c427c6ce11d892e2080020a0f4c9
JDILH,,Burgoyne Bay Park,Burgoyne Bay Park,BC,Saltspring Island Land District,48.785833,-123.516667,Provincial Park,PARK,50000,d674de590a001204395c82f915f58b26
JDBGN,,E.C. Manning Park,E.C. Manning Park,BC,Yale Division Yale Land District,49.099999999999994,-120.816667,Provincial Park,PARK,1000000,74dcbae2d05511d892e2080020a0f4c9
CATMW,,Laurie Provincial Park,Laurie Provincial Park,NS,Halifax,44.88400300000001,-63.601905,Provincial Park,PARK,1000000,03268153af7111d892e2080020a0f4c9
JDFTR,,Blue River Black Spruce Park,Blue River Black Spruce Park,BC,Kamloops Division Yale Land District,52.138611,-119.273611,Provincial Park,PARK,1000000,1a4f6cf2d05511d892e2080020a0f4c9
JDHBA,,Milligan Hills Park,Milligan Hills Park,BC,Peace River Land District,57.493055999999996,-120.230556,Provincial Park,PARK,1000000,8700e5b6d05511d892e2080020a0f4c9
JDFTI,,Emar Lakes Park,Emar Lakes Park,BC,Kamloops Division Yale Land District,51.47916699999999,-120.39583300000001,Provincial Park,PARK,1000000,1abfe20cd05511d892e2080020a0f4c9
JDIMA,,Klin-se-za Park,Klin-se-za Park,BC,Peace River Land District,55.80000000000001,-122.561944,Provincial Park,PARK,50000,d66169740a0012047c2d22b0a918f52f
FCOPW,,Sioux Narrows Provincial Park,Sioux Narrows Provincial Park,ON,Kenora,49.42403999999999,-94.04992,Provincial Park,PARK,1000000,1004c282bbe211d892e2080020a0f4c9
FDTPE,,Darlington Provincial Park,Darlington Provincial Park,ON,Durham,43.8725,-78.7838889,Provincial Park,PARK,1000000,11977091bbe211d892e2080020a0f4c9
JCPHK,,Arrow Lakes Park,Arrow Lakes Park,BC,Kootenay Land District,49.86666700000001,-118.068056,Provincial Park,PARK,1000000,63161a66d05511d892e2080020a0f4c9
CAGIV,,Caribou-Munroes Island Provincial Park,Caribou-Munroes Island Provincial Park,NS,Pictou,45.721588,-62.654213,Provincial Park,PARK,50000,671117d90a0012044f1adeb755e8457c
HAQXO,,Good Spirit Lake Provincial Park,Good Spirit Lake Provincial Park,SK,,51.534848100000005,-102.6842903,Provincial Park,PARK,1000000,0c307e79849c20c33aae5999bb885f8e
GBLDR,,Winnipeg Beach Provincial Park,Winnipeg Beach Provincial Park,MB,17-4E,50.50027800000001,-96.969722,Provincial Park,PARK,1000000,44af8fadbef911d892e2080020a0f4c9
JDFSY,,Painted Bluffs Park,Painted Bluffs Park,BC,Kamloops Division Yale Land District,50.796943999999996,-120.744722,Provincial Park,PARK,1000000,1b8a0feed05511d892e2080020a0f4c9
JDFGQ,,Moose Valley Park,Moose Valley Park,BC,Lillooet Land District,51.651388999999995,-121.651389,Provincial Park,PARK,1000000,15f62592d05511d892e2080020a0f4c9
JCJMJ,,Brandywine Falls Park,Brandywine Falls Park,BC,New Westminster Land District,50.03388899999999,-123.120833,Provincial Park,PARK,1000000,0cfcb790849c20c3201ca08dfa8c58a3
JDBZU,,Kilby Park,Kilby Park,BC,New Westminster Land District,49.23833300000001,-121.963611,Provincial Park,PARK,1000000,09b390ecd05511d892e2080020a0f4c9
JAMOE,,Monck Park,Monck Park,BC,Kamloops Division Yale Land District,50.177222,-120.537778,Provincial Park,PARK,1000000,0d0204aa849c20c32ff1fdbfa9ad96f1
JAMPZ,,Monte Lake Park,Monte Lake Park,BC,Kamloops Division Yale Land District,50.50055599999999,-119.831944,Provincial Park,PARK,1000000,0c90ff72849c20c311e0b5096a80e58c
JAVBM,,John Dean Park,John Dean Park,BC,North Saanich Land District,48.61527799999999,-123.447778,Provincial Park,PARK,1000000,0cfdeae1849c20c32f0b944909c9580a
IAPEY,,Jarvis Bay Provincial Park,Jarvis Bay Provincial Park,AB,39-1-W5,52.34527779999999,-114.0863889,Provincial Park,PARK,1000000,0c89799b849c20c3350bc38e36ede473
IAUGN,,Cypress Hills Interprovincial Park,Cypress Hills Interprovincial Park,AB,"7,8-1,2,3-W4",49.633333300000004,-110.2083333,Provincial Park,PARK,1000000,0c8a07ae849c20c3e49b8dc3fd5b5313
JDFGM,,Marble Range Park,Marble Range Park,BC,Lillooet Land District,51.191666999999995,-121.83333300000001,Provincial Park,PARK,1000000,15e00580d05511d892e2080020a0f4c9
JDFSQ,,Eakin Creek Floodplain Park,Eakin Creek Floodplain Park,BC,Kamloops Division Yale Land District,51.474999999999994,-120.323611,Provincial Park,PARK,1000000,1aa973dad05511d892e2080020a0f4c9
ABMKQ,,Jack's Pond Provincial Park,Jack's Pond Provincial Park,NL,Bellevue,47.7547222,-53.95638889999999,Provincial Park,PARK,1000000,eb89d057d05311d892e2080020a0f4c9
HAXDX,,Last Mountain House Provincial Park,Last Mountain House Provincial Park,SK,,50.77093049999999,-104.8780374,Provincial Park,PARK,1000000,0d023de2849c20c3eecfad491b39c4cd
JCYGP,,Tatlatui Park,Tatlatui Park,BC,Cassiar Land District,56.98916700000001,-127.4025,Provincial Park,PARK,1000000,649e6838d05511d892e2080020a0f4c9
FCMYU,,Rushing River Provincial Park,Rushing River Provincial Park,ON,Kenora,49.68694450000001,-94.2288889,Provincial Park,PARK,1000000,0fc08d8ebbe211d892e2080020a0f4c9
JANMW,,Darke Lake Park,Darke Lake Park,BC,Osoyoos Division Yale Land District,49.720833,-119.858333,Provincial Park,PARK,1000000,0c917ffd849c20c3b00b99c31ec2a91f
IBAAO,,Pierre Grey's Lakes Provincial Park,Pierre Grey's Lakes Provincial Park,AB,13-6-57-4-6,53.903055499999994,-118.5902778,Provincial Park,PARK,50000,f6a02bee30c711dda869080020a0f4c9
HAXDT,,Cumberland House Provincial Park,Cumberland House Provincial Park,SK,,53.959773600000005,-102.2641146,Provincial Park,PARK,1000000,0cf4f38a849c20c3734685de0f942342
FDTQF,,Mara Provincial Park,Mara Provincial Park,ON,Simcoe,44.587500000000006,-79.3591667,Provincial Park,PARK,1000000,120aa4c9bbe211d892e2080020a0f4c9
JAVTK,,Mabel Lake Park,Mabel Lake Park,BC,Osoyoos Division Yale Land District,50.45833300000001,-118.725,Provincial Park,PARK,1000000,b12917efd05411d892e2080020a0f4c9
JDHMY,,Lower Tsitika River Park,Lower Tsitika River Park,BC,Rupert Land District,50.45833300000001,-126.588889,Provincial Park,PARK,1000000,9d69705dd05511d892e2080020a0f4c9
FIDQC,,Widdifield Forest Provincial Park,Widdifield Forest Provincial Park,ON,Widdifield,46.44732099999999,-79.325333,Provincial Park,PARK,50000,bcc9278b744347ba81a1113b7e1f5c7d
JDHNY,,Sutherland River Park,Sutherland River Park,BC,Range 5 Coast Land District,54.46888899999999,-125.089444,Provincial Park,PARK,1000000,4f9f7fd4d05511d892e2080020a0f4c9
JDFFP,,Gladstone Park,Gladstone Park,BC,Similkameen Division Yale Land District,49.272222,-118.245833,Provincial Park,PARK,1000000,1518489ed05511d892e2080020a0f4c9
GBLBX,,Pisew Falls Provincial Park,Pisew Falls Provincial Park,MB,71-7W,55.197778,-98.396667,Provincial Park,PARK,1000000,3aea09dfbef911d892e2080020a0f4c9
FEUUS,,Dana-Jowsey Lakes Provincial Park,Dana-Jowsey Lakes Provincial Park,ON,Cochrane,48.345187100000004,-81.8024913,Provincial Park,PARK,1000000,1808eababbe211d892e2080020a0f4c9
GBSMB,,Caribou River Provincial Park,Caribou River Provincial Park,MB,,59.56361000000001,-96.66111,Provincial Park,PARK,1000000,45099690bef911d892e2080020a0f4c9
JBOWI,,Tribune Bay Park,Tribune Bay Park,BC,Nanaimo Land District,49.52944400000001,-124.641944,Provincial Park,PARK,1000000,0c9fb1da849c20c396e3e7791dc296b0
IBAAH,,Canmore Nordic Centre Provincial Park,Canmore Nordic Centre Provincial Park,AB,13-31-24-10-5,51.0925,-115.39,Provincial Park,PARK,50000,4a340b477f000001795d788433135a89
CAIUV,,Dalem Lake Provincial Park,Dalem Lake Provincial Park,NS,Victoria,46.25048799999999,-60.423513,Provincial Park,PARK,1000000,c4cddd42af5b11d892e2080020a0f4c9
IALHB,,Moose Lake Provincial Park,Moose Lake Provincial Park,AB,61-7-W4,54.271388900000005,-110.93,Provincial Park,PARK,1000000,0c8777bd849c20c3474a0d337b318667
JADIH,,Inonoaklin Park,Inonoaklin Park,BC,Kootenay Land District,49.774722,-118.14,Provincial Park,PARK,1000000,57c42e6cc6be11d892e2080020a0f4c9
JDIOS,,Fred Antoine Park,Fred Antoine Park,BC,Lillooet Land District,50.901388999999995,-122.1125,Provincial Park,PARK,50000,9395803f0a001204165bece220ce20ac
FEVSH,,Temagami River Provincial Park,Temagami River Provincial Park,ON,Nipissing,46.68729999999999,-79.995006,Provincial Park,PARK,1000000,1b9f5738bbe211d892e2080020a0f4c9
JDLMG,,Gerald Island Park,Gerald Island Park,BC,Nanaimo Land Distrct,49.31138899999999,-124.162222,Provincial Park,PARK,50000,658174d40a0012040c2380d14ac96590
IAAOO,,Red Lodge Provincial Park,Red Lodge Provincial Park,AB,34-2-W5,51.9444445,-114.2441667,Provincial Park,PARK,1000000,0c82a2e8849c20c307cb52dab54aae32
JCROH,,Jimsmith Lake Park,Jimsmith Lake Park,BC,Kootenay Land District,49.482777999999996,-115.841111,Provincial Park,PARK,1000000,196e4811c6ce11d892e2080020a0f4c9
ABMJT,,Chance Cove Provincial Park,Chance Cove Provincial Park,NL,Ferryland,46.77611110000001,-53.03611119999999,Provincial Park,PARK,1000000,77343fa7d05511d892e2080020a0f4c9
CBUFC,,Heather Beach Provincial Park,Heather Beach Provincial Park,NS,Cumberland,45.874551,-63.75238,Provincial Park,PARK,1000000,6a3feab0affd11d892e2080020a0f4c9
FIDLW,,Alexander Lake Forest Provincial Park,Alexander Lake Forest Provincial Park,ON,Antoine,46.460285999999996,-78.9198,Provincial Park,PARK,50000,8b9dbb114d7f476bb0bd023c1ae8de7e
FEUVS,,Steel River Provincial Park,Steel River Provincial Park,ON,Thunder Bay,49.329722000000004,-86.714722,Provincial Park,PARK,1000000,18b900f0bbe211d892e2080020a0f4c9
IARMP,,Crimson Lake Provincial Park,Crimson Lake Provincial Park,AB,40-8-W5,52.46583340000001,-115.0455556,Provincial Park,PARK,1000000,0c8a072a849c20c30c220410aef1783e
FDPGB,,Point Farms Provincial Park,Point Farms Provincial Park,ON,Huron,43.80488,-81.71728,Provincial Park,PARK,1000000,1137eb65bbe211d892e2080020a0f4c9
CCAMV,,Rushton Beach Provincial Park,Rushton Beach Provincial Park,NS,Pictou,45.756519,-63.122628000000006,Provincial Park,PARK,1000000,8004e27faffd11d892e2080020a0f4c9
JDFOM,,Pyramid Creek Falls Park,Pyramid Creek Falls Park,BC,Kamloops Division Yale Land District,52.35638900000001,-119.16638900000001,Provincial Park,PARK,1000000,1ba0a530d05511d892e2080020a0f4c9
JCXSK,,Moberly Lake Park,Moberly Lake Park,BC,Peace River Land District,55.808333000000005,-121.695,Provincial Park,PARK,1000000,0caa10cb849c20c36eb2f221e0318868
JAHIT,,Cottonwood River Park,Cottonwood River Park,BC,Cariboo Land District,53.171667000000014,-122.488889,Provincial Park,PARK,1000000,0c8ddf45849c20c3db14f5daaea61258
JBBCK,,Paarens Beach Park,Paarens Beach Park,BC,Range 5 Coast Land District,54.418611,-124.381667,Provincial Park,PARK,1000000,1b4b1e8ec6ce11d892e2080020a0f4c9
JBNQJ,,White Lake Park,White Lake Park,BC,Kamloops Division Yale Land District,50.89444399999999,-119.233889,Provincial Park,PARK,1000000,0c9f0a88849c20c369f4b6c660a88bb3
ABMLQ,,Sandbanks Provincial Park,Sandbanks Provincial Park,NL,Burgeo-Bay d'Espoir,47.607222199999995,-57.6472222,Provincial Park,PARK,1000000,eafea74bd05311d892e2080020a0f4c9
FEPVH,,La Cloche Provincial Park,La Cloche Provincial Park,ON,Sudbury; Algoma; Manitoulin,46.11031,-82.0304,Provincial Park,PARK,1000000,16888c25bbe211d892e2080020a0f4c9
FEPVN,,Michipicoten Provincial Park,Michipicoten Provincial Park,ON,Algoma,47.92535000000001,-84.83738,Provincial Park,PARK,1000000,16b9d559bbe211d892e2080020a0f4c9
GBLCR,,Camp Morton Provincial Park,Camp Morton Provincial Park,MB,20-4E,50.71000000000001,-96.990278,Provincial Park,PARK,1000000,3dc626d3bef911d892e2080020a0f4c9
BAETZ,,Victoria Provincial Park,Victoria Provincial Park,PE,Queens,46.208291,-63.479057,Provincial Park,PARK,1000000,0c0b9ac0849c20c31aef8aeaf776a889
JASUV,,Erie Creek Park,Erie Creek Park,BC,Kootenay Land District,49.18972199999999,-117.305,Provincial Park,PARK,1000000,0c944eec849c20c374a42e140b169c8d
JBBTH,,Dry Gulch Park,Dry Gulch Park,BC,Kootenay Land District,50.58611099999999,-116.038611,Provincial Park,PARK,1000000,0c98f317849c20c3639720553f033d53
JDFNF,,Artlish Caves Park,Artlish Caves Park,BC,Rupert Land District,50.140277999999995,-126.906667,Provincial Park,PARK,1000000,1a2305bed05511d892e2080020a0f4c9
JCWZY,,Alexandra Bridge Park,Alexandra Bridge Park,BC,Yale Division Yale Land District,49.70527799999999,-121.40638899999999,Provincial Park,PARK,1000000,076ea9cfd05511d892e2080020a0f4c9
FEPVW,,Quackenbush Provincial Park,Quackenbush Provincial Park,ON,Peterborough,44.56112999999999,-78.00181,Provincial Park,PARK,1000000,171589f0bbe211d892e2080020a0f4c9
GBLBY,,Primrose Provincial Park,Primrose Provincial Park,MB,39-26W,52.39777799999999,-101.12111,Provincial Park,PARK,1000000,3b0950b0bef911d892e2080020a0f4c9
ABMJZ,,Dildo Run Provincial Park,Dildo Run Provincial Park,NL,Twillingate,49.53555560000001,-54.721944500000006,Provincial Park,PARK,1000000,828bd7f3d05511d892e2080020a0f4c9
FEPUS,,Arrow Lake Provincial Park,Arrow Lake Provincial Park,ON,Thunder Bay,48.178349999999995,-90.22542,Provincial Park,PARK,1000000,15c3193bbbe211d892e2080020a0f4c9
JDGJQ,,Main Lake Park,Main Lake Park,BC,Sayward Land District,50.21111099999999,-125.216667,Provincial Park,PARK,1000000,1f71f8d5d05511d892e2080020a0f4c9
ACIVH,,Newfoundland T'Railway Provincial Park,Newfoundland T'Railway Provincial Park,NL,,48.96722199999999,-55.616111000000004,Provincial Park,PARK,50000,10240662849c20c3230c00b565e68289
CAOKJ,,Graves Island Provincial Park,Graves Island Provincial Park,NS,Lunenburg,44.560806000000014,-64.206167,Provincial Park,PARK,1000000,028d1ec6af6511d892e2080020a0f4c9
JAQTU,,Elk Lakes Park,Elk Lakes Park,BC,Kootenay Land District,50.466667,-115.083333,Provincial Park,PARK,1000000,ae49ec8ed05411d892e2080020a0f4c9
JDIMV,,Sikanni Chief Canyon Park,Sikanni Chief Canyon Park,BC,Peace River Land District,57.484722000000005,-122.125,Provincial Park,PARK,50000,001afb090a001204262109e3fd2c0104
JDFHK,,Syringa Park,Syringa Park,BC,Kootenay Land District,49.379166999999995,-117.89583300000001,Provincial Park,PARK,1000000,1682ae2ed05511d892e2080020a0f4c9
HAWCR,,Douglas Provincial Park,Douglas Provincial Park,SK,23-24-4-W3,51.01603019999999,-106.4662081,Provincial Park,PARK,1000000,0cff5b77849c20c37a1c1c3295215da5
CBVKG,,McNabs and Lawlor Islands Provincial Park,McNabs and Lawlor Islands Provincial Park,NS,Halifax,44.60991999999999,-63.515433,Provincial Park,PARK,50000,edf6e2410a001204145465fe7c935cca
JDEYN,,Martha Creek Park,Martha Creek Park,BC,Kootenay Land District,51.148889,-118.2025,Provincial Park,PARK,1000000,e366f30dd05211d892e2080020a0f4c9
FENCP,,Lake St. Peter Provincial Park,Lake St. Peter Provincial Park,ON,Hastings,45.334329999999994,-78.02328,Provincial Park,PARK,1000000,1334cd00bbe211d892e2080020a0f4c9
JDHMK,,Evanoff Park,Evanoff Park,BC,Cariboo Land District,54.083889,-121.338056,Provincial Park,PARK,1000000,9a6ef4cad05511d892e2080020a0f4c9
HAXDV,,Fort Carlton Provincial Park,Fort Carlton Provincial Park,SK,,52.87291060000001,-106.5266038,Provincial Park,PARK,1000000,0d023d79849c20c378a1ba97cbe72081
JDGKB,,Upper Lillooet Park,Upper Lillooet Park,BC,Lillooet Land District,50.683333000000005,-123.616667,Provincial Park,PARK,1000000,1fcc74edd05511d892e2080020a0f4c9
FBULG,,Killarney Provincial Park,Killarney Provincial Park,ON,Sudbury; Manitoulin,46.100555000000014,-81.381111,Provincial Park,PARK,1000000,0f303460bbe211d892e2080020a0f4c9
HAWDK,,Blackstrap Provincial Park,Blackstrap Provincial Park,SK,32-3-W3,51.75656839999999,-106.4507679,Provincial Park,PARK,1000000,0c32aaca849c20c3a57d4fa2ff0360d9
HAWRJ,,Wildcat Hill Provincial Park,Wildcat Hill Provincial Park,SK,,53.2538213,-102.4842863,Provincial Park,PARK,1000000,0e3ee4d6d05511d892e2080020a0f4c9
GBSLW,,Fisher Bay Provincial Park,Fisher Bay Provincial Park,MB,,51.66111000000001,-97.16917,Provincial Park,PARK,50000,074806300a001204375f360cf2f1d1d2
JAYIM,,St. Mary's Alpine Park,St. Mary's Alpine Park,BC,Kootenay Land District,49.88055600000001,-116.35,Provincial Park,PARK,1000000,0c971a56849c20c37c8c71156890ac44
ACGTW,,Arches Provincial Park,Arches Provincial Park,NL,St. Barbe,50.113611100000014,-57.66305560000001,Provincial Park,PARK,1000000,78fccaced05511d892e2080020a0f4c9
IARMX,,Whitney Lakes Provincial Park,Whitney Lakes Provincial Park,AB,56-4-W4,53.849999999999994,-110.53333,Provincial Park,PARK,1000000,a157ddfad05411d892e2080020a0f4c9
JDILB,,Morice Lake Park,Morice Lake Park,BC,Range 4 Coast Land District,53.966667,-127.65,Provincial Park,PARK,50000,d674e3650a00120416d2eeadfef0f9f2
JDFFY,,Horne Lake Caves Park,Horne Lake Caves Park,BC,Alberni Land District,49.34527800000001,-124.753889,Provincial Park,PARK,1000000,1570c8e6d05511d892e2080020a0f4c9
ERKEO,,Parc national de Frontenac,Parc national de Frontenac,QC,Sainte-Praxède; Les Appalaches,45.86666700000001,-71.216667,National Park,PARK,1000000,0fdc0f94849c20c30ee5c2ff3b477e07
BACCS,,Red Point Provincial Park,Red Point Provincial Park,PE,Kings,46.368239999999986,-62.135391999999996,Provincial Park,PARK,1000000,d080e232d05311d892e2080020a0f4c9
JBMXG,,Rosewall Creek Park,Rosewall Creek Park,BC,Newcastle Land District,49.45500000000001,-124.775278,Provincial Park,PARK,1000000,bf0e5f37d05411d892e2080020a0f4c9
JBSDG,,Yard Creek Park,Yard Creek Park,BC,Kamloops Division Yale Land District,50.90277800000001,-118.82138900000001,Provincial Park,PARK,1000000,0ca164fc849c20c330e235705ec011dd
JCXFB,,Christina Lake Park,Christina Lake Park,BC,Similkameen Division Yale Land District,49.042778,-118.21888899999999,Provincial Park,PARK,1000000,07853f11d05511d892e2080020a0f4c9
HAWCO,,Duck Mountain Provincial Park,Duck Mountain Provincial Park,SK,,51.66474289999999,-101.6571547,Provincial Park,PARK,1000000,0c32a8c2849c20c3e7fb84458e766db9
JDFFZ,,Indian Arm Park,Indian Arm Park,BC,New Westminster Land District,49.422222000000005,-122.84444400000001,Provincial Park,PARK,1000000,9ce2db31d05511d892e2080020a0f4c9
JCPQY,,Mount Terry Fox Park,Mount Terry Fox Park,BC,Cariboo Land District,52.94499999999999,-119.25805600000001,Provincial Park,PARK,1000000,0452ea99d05511d892e2080020a0f4c9
JBJWE,,West Lake Park,West Lake Park,BC,Cariboo Land District,53.73750000000001,-122.8625,Provincial Park,PARK,1000000,0c9d2cee849c20c3e3aa486a09315e76
JDFFT,,Granby Park,Granby Park,BC,Similkameen Division Yale Land District,49.74166700000001,-118.4625,Provincial Park,PARK,1000000,1544afd2d05511d892e2080020a0f4c9
JAQTY,,Elko Park,Elko Park,BC,Kootenay Land District,49.298333000000014,-115.118056,Provincial Park,PARK,1000000,0c934429849c20c33e05c809ea012203
CBVIB,,Cape Chignecto Provincial Park,Cape Chignecto Provincial Park,NS,Cumberland,45.350705000000005,-64.909066,Provincial Park,PARK,50000,5742e957849c20c3411452d735f36a77
OEBHX,,Meliadine Esker Territorial Park,Meliadine Esker Territorial Park,NU,,62.91638889999999,-92.2141667,Territorial Park,PARK,50000,70023496e2ca4fd0bddd93d5750a915f
FBVXH,,Lake on the Mountain Provincial Park,Lake on the Mountain Provincial Park,ON,Prince Edward,44.03499600000001,-77.059051,Provincial Park,PARK,1000000,0f485044bbe211d892e2080020a0f4c9
JAIXY,,Charlie Lake Park,Charlie Lake Park,BC,Peace River Land District,56.308333000000005,-120.995833,Provincial Park,PARK,1000000,0c8ed08c849c20c3659e4d1b6d34b10d
JDILX,,Kingfisher Creek Park,Kingfisher Creek Park,BC,Kamloops Division Yale Land District,50.80000000000001,-118.783333,Provincial Park,PARK,50000,d6616cb70a0012043f34b16bede57af8
JBMHL,,Skihist Park,Skihist Park,BC,Kamloops Division Yale Land District,50.24444399999999,-121.515278,Provincial Park,PARK,1000000,0cfb5c8f849c20c357bdcd412bccccc3
JDHMC,,Chase Park,Chase Park,BC,Cassiar Land District,56.50833299999999,-125.029167,Provincial Park,PARK,1000000,9a2bf854d05511d892e2080020a0f4c9
JCDCS,,Ruth Lake Park,Ruth Lake Park,BC,Lillooet Land District,51.827777999999995,-121.03194400000001,Provincial Park,PARK,1000000,0ca72edb849c20c39e4b1f3ca9a2f612
GBLCX,,Manipogo Provincial Park,Manipogo Provincial Park,MB,29-15W,51.51666700000001,-99.549722,Provincial Park,PARK,1000000,3fb21859bef911d892e2080020a0f4c9
IBAAN,,Obed Lake Provincial Park,Obed Lake Provincial Park,AB,8-12-53-22-5,53.56305499999999,-117.09222199999999,Provincial Park,PARK,50000,f641430d30c711dda869080020a0f4c9
JASXP,,Ethel F. Wilson Memorial Park,Ethel F. Wilson Memorial Park,BC,Range 5 Coast Land District,54.417778,-125.686944,Provincial Park,PARK,1000000,0cfdcea8849c20c35e578b954e99b17f
GBLCN,,Bakers Narrows Provincial Park,Bakers Narrows Provincial Park,MB,65-28W,54.671110999999996,-101.675,Provincial Park,PARK,1000000,3d7ce8cfbef911d892e2080020a0f4c9
ESFRD,,Parc national du Lac-Témiscouata,Parc national du Lac-Témiscouata,QC,Saint-Juste-du-Lac; Témiscouata,47.70750000000001,-68.761667,National Park,PARK,50000,de2cf1deddfc43a3b7837475e7df2db3
JBJCZ,,Sooke Mountain Park,Sooke Mountain Park,BC,Otter Land District,48.43944400000001,-123.65861100000001,Provincial Park,PARK,1000000,0c9cbe2a849c20c313e34eda6176e32f
JDHMH,,Ed Bird-Estella Lakes Park,Ed Bird-Estella Lakes Park,BC,Cassiar Land District,56.933333000000005,-125.1,Provincial Park,PARK,1000000,9a58fbc8d05511d892e2080020a0f4c9
GBLCU,,Hnausa Beach Provincial Park,Hnausa Beach Provincial Park,MB,22-4E,50.900277999999986,-96.992222,Provincial Park,PARK,1000000,3f5d1a86bef911d892e2080020a0f4c9
JAVJH,,F.H. Barber Park,F.H. Barber Park,BC,Yale Division Yale Land District,49.313333,-121.634722,Provincial Park,PARK,1000000,0c959bc4849c20c3d6d1c6c9aa577948
GBLCM,,Atikaki Provincial Park,Atikaki Provincial Park,MB,29-14E,51.5,-95.516667,Provincial Park,PARK,1000000,3d67da2ebef911d892e2080020a0f4c9
JBSHO,,Tudyah Lake Park,Tudyah Lake Park,BC,Cariboo Land District,55.064167,-123.036111,Provincial Park,PARK,1000000,0ca182ea849c20c38475e9f8862b8d34
HAHJH,,Saskatchewan Landing Provincial Park,Saskatchewan Landing Provincial Park,SK,"19,20-14,15,16-W3",50.66615139999999,-107.9896636,Provincial Park,PARK,1000000,0c2bb514849c20c3b5b71ab549cd6560
FDTQC,,Marten River Provincial Park,Marten River Provincial Park,ON,Nipissing,46.72319999999999,-79.8148,Provincial Park,PARK,1000000,1200b9b8bbe211d892e2080020a0f4c9
JDLMQ,,Dante's Inferno Park,Dante's Inferno Park,BC,Cariboo Land District,51.89166700000001,-122.872222,Provincial Park,PARK,50000,6581c7570a001204296cb515530cb269
CBUFS,,Queensland Beach Provincial Park,Queensland Beach Provincial Park,NS,Halifax,44.636874000000006,-64.028373,Provincial Park,PARK,1000000,7be76aefaffd11d892e2080020a0f4c9
JCXSN,,Petroglyph Park,Petroglyph Park,BC,Nanaimo Land District,49.141110999999995,-123.92694399999999,Provincial Park,PARK,1000000,0caa110b849c20c395779625435ed1a8
JARNL,,Bromley Rock Park,Bromley Rock Park,BC,Similkameen Division Yale Land District,49.416111,-120.2625,Provincial Park,PARK,1000000,0c93ad30849c20c36233ad257e884837
FBAYL,,Earl Rowe Provincial Park,Earl Rowe Provincial Park,ON,Simcoe,44.157880000000006,-79.90501,Provincial Park,PARK,1000000,0eb2ee00bbe211d892e2080020a0f4c9
JBEAL,,Pinnacles Park,Pinnacles Park,BC,Cariboo Land District,52.980278,-122.56222199999999,Provincial Park,PARK,1000000,0c9a13da849c20c361e775ca05051282
FDSVL,,Pancake Bay Provincial Park,Pancake Bay Provincial Park,ON,Algoma,46.969660000000005,-84.69182,Provincial Park,PARK,1000000,11656409bbe211d892e2080020a0f4c9
BAAWA,,Devil's Punchbowl Provincial Park,Devil's Punchbowl Provincial Park,PE,Queens,46.41666699999999,-63.483333,Provincial Park,PARK,1000000,0c0ac4a5849c20c3ded1688b4fb6698e
FDSWF,,Mikisew Provincial Park,Mikisew Provincial Park,ON,Parry Sound,45.8219445,-79.5113889,Provincial Park,PARK,1000000,118b89afbbe211d892e2080020a0f4c9
FBVYC,,Lake Superior Provincial Park,Lake Superior Provincial Park,ON,Algoma,47.5968,-84.74162,Provincial Park,PARK,1000000,0f4e6ac5bbe211d892e2080020a0f4c9
JAGGY,,Cathedral Park,Cathedral Park,BC,Similkameen Division Yale Land District,49.076389000000006,-120.179167,Provincial Park,PARK,1000000,0c8d5062849c20c337894d3843b3ae2a
FAQWI,,Chutes Provincial Park,Chutes Provincial Park,ON,Sudbury,46.22099,-82.07231,Provincial Park,PARK,1000000,0e8ca24dbbe211d892e2080020a0f4c9
JDLMR,,Donnely Lake Park,Donnely Lake Park,BC,Lillooet Land District,51.754166999999995,-120.669444,Provincial Park,PARK,50000,6581d2d60a001204555e26395325559e
JAONC,,Mount Assiniboine Park,Mount Assiniboine Park,BC,Kootenay Land District,50.944444000000004,-115.741667,Provincial Park,PARK,1000000,0c92116d849c20c3912b16e4543631fb
CBULX,,Plaster Provincial Park,Plaster Provincial Park,NS,Victoria,46.41450599999999,-60.475246,Provincial Park,PARK,1000000,9487e4a1affd11d892e2080020a0f4c9
JDHAN,,Brackendale Eagles Park,Brackendale Eagles Park,BC,New Westminster Land District,49.754166999999995,-123.175,Provincial Park,PARK,1000000,787fab84d05511d892e2080020a0f4c9
IAHQG,,Gregoire Lake Provincial Park,Gregoire Lake Provincial Park,AB,86-8-W4,56.485000000000014,-111.1827778,Provincial Park,PARK,1000000,0cffa705849c20c3e95ef8d80d053aa1
FBJYW,,Greenwater Provincial Park,Greenwater Provincial Park,ON,Cochrane,49.214879999999994,-81.28244,Provincial Park,PARK,1000000,0eda2516bbe211d892e2080020a0f4c9
JAEPQ,,Little Qualicum Falls Park,Little Qualicum Falls Park,BC,Cameron Land District,49.297222000000005,-124.579167,Provincial Park,PARK,1000000,0c8c7f52849c20c39223a89c537f9290
IAIXO,,Midland Provincial Park,Midland Provincial Park,AB,"8,9,16,17-29-20-W4",51.478055600000005,-112.7722222,Provincial Park,PARK,1000000,0c867144849c20c3b115b610ff11f603
HARNM,,Meadow Lake Provincial Park,Meadow Lake Provincial Park,SK,,54.483849099999986,-108.9488791,Provincial Park,PARK,1000000,0d023eab849c20c3c9682111da6e3d5f
JDCTK,,Shannon Falls Park,Shannon Falls Park,BC,New Westminster Land District,49.66722200000001,-123.163889,Provincial Park,PARK,1000000,0c50aa39d05511d892e2080020a0f4c9
CBUGD,,Lake Midway Provincial Park,Lake Midway Provincial Park,NS,Digby,44.52966699999999,-66.041054,Provincial Park,PARK,1000000,7eae2c1aaffd11d892e2080020a0f4c9
CBUGH,,Powells Point Provincial Park,Powells Point Provincial Park,NS,Pictou,45.65311700000001,-62.55938999999999,Provincial Park,PARK,1000000,7fe3ecfeaffd11d892e2080020a0f4c9
JDIMS,,Pukeashun Park,Pukeashun Park,BC,Kamloops Division Yale Land District,51.19472200000001,-119.260278,Provincial Park,PARK,50000,001af9050a00120440f8c9bf10da4178
ABMLJ,,Pistolet Bay Provincial Park,Pistolet Bay Provincial Park,NL,Strait of Belle Isle,51.533333,-55.682221999999996,Provincial Park,PARK,1000000,eb36ce50d05311d892e2080020a0f4c9
FEPVU,,Port Burwell Provincial Park,Port Burwell Provincial Park,ON,Elgin,42.64797999999999,-80.81623,Provincial Park,PARK,1000000,16eaf77ebbe211d892e2080020a0f4c9
FDNSL,,Bronte Creek Provincial Park,Bronte Creek Provincial Park,ON,Halton,43.415555600000005,-79.7677777,Provincial Park,PARK,1000000,111e9701bbe211d892e2080020a0f4c9
HAOAX,,Moose Mountain Provincial Park,Moose Mountain Provincial Park,SK,,49.82116930000001,-102.3760689,Provincial Park,PARK,1000000,0d023f58849c20c33388a1c6c44fa5a9
JBZOL,,Green Lake Park,Green Lake Park,BC,Lillooet Land District,51.40972199999999,-121.195833,Provincial Park,PARK,1000000,cc26ba7fd05411d892e2080020a0f4c9
JDIOV,,Oregana Creek Park,Oregana Creek Park,BC,Kamloops Division Yale Land District,51.986110999999994,-119.085555,Provincial Park,PARK,50000,939605400a0012041e94b0cadb7f67a3
IAABC,,Writing-On-Stone Provincial Park,Writing-On-Stone Provincial Park,AB,1-13-W4,49.08333339999999,-111.6333333,Provincial Park,PARK,1000000,0c828d89849c20c3fc778a73b00ed438
FEPVV,,Pretty River Valley Provincial Park,Pretty River Valley Provincial Park,ON,Grey,44.426666600000004,-80.2902778,Provincial Park,PARK,1000000,16f864ffbbe211d892e2080020a0f4c9
JCPGW,,Englishman River Falls Park,Englishman River Falls Park,BC,Nanoose Land District,49.247221999999994,-124.35166699999999,Provincial Park,PARK,1000000,0ca929d6849c20c3c94fc269b84240b7
JDHLZ,,Butler Ridge Park,Butler Ridge Park,BC,Peace River Land District,56.183333000000005,-122.3,Provincial Park,PARK,1000000,9a20d4c3d05511d892e2080020a0f4c9
FCVSA,,The Shoals Provincial Park,The Shoals Provincial Park,ON,Sudbury,47.83538999999999,-83.85027,Provincial Park,PARK,1000000,1034fa46bbe211d892e2080020a0f4c9
ABMKJ,,Gooseberry Cove Provincial Park,Gooseberry Cove Provincial Park,NL,St. Mary's-The Capes,47.068055500000014,-54.0877778,Provincial Park,PARK,1000000,773fb158d05511d892e2080020a0f4c9
FEPVZ,,Sharbot Lake Provincial Park,Sharbot Lake Provincial Park,ON,Frontenac,44.771388900000005,-76.7252777,Provincial Park,PARK,1000000,17356e03bbe211d892e2080020a0f4c9
FEPVE,,J. Albert Bauer Provincial Park,J. Albert Bauer Provincial Park,ON,Muskoka,45.40517,-79.01982,Provincial Park,PARK,1000000,1629f162bbe211d892e2080020a0f4c9
JDGJK,,Joffre Lakes Park,Joffre Lakes Park,BC,Lillooet Land District,50.345833,-122.476389,Provincial Park,PARK,1000000,7d3fcc0ed05511d892e2080020a0f4c9
JDLMP,,Crater Lake Park,Crater Lake Park,BC,Lillooet Land District,51.348056000000014,-121.098611,Provincial Park,PARK,50000,6581be4c0a00120479ad47fad350e894
JDIKY,,Anderson Flats Park,Anderson Flats Park,BC,Cassiar Land District,55.24444399999999,-127.665555,Provincial Park,PARK,50000,d674e68a0a0012042012800a7fc03c17
